__time,/SCIT_drone/UAV_motion/angular/acc/x,/SCIT_drone/UAV_motion/angular/acc/y,/SCIT_drone/UAV_motion/angular/acc/z,/SCIT_drone/UAV_motion/angular/jerk/x,/SCIT_drone/UAV_motion/angular/jerk/y,/SCIT_drone/UAV_motion/angular/jerk/z,/SCIT_drone/UAV_motion/angular/q/w,/SCIT_drone/UAV_motion/angular/q/x,/SCIT_drone/UAV_motion/angular/q/y,/SCIT_drone/UAV_motion/angular/q/z,/SCIT_drone/UAV_motion/angular/vel/x,/SCIT_drone/UAV_motion/angular/vel/y,/SCIT_drone/UAV_motion/angular/vel/z,/SCIT_drone/UAV_motion/linear/acc/x,/SCIT_drone/UAV_motion/linear/acc/y,/SCIT_drone/UAV_motion/linear/acc/z,/SCIT_drone/UAV_motion/linear/jerk/x,/SCIT_drone/UAV_motion/linear/jerk/y,/SCIT_drone/UAV_motion/linear/jerk/z,/SCIT_drone/UAV_motion/linear/pos/x,/SCIT_drone/UAV_motion/linear/pos/y,/SCIT_drone/UAV_motion/linear/pos/z,/SCIT_drone/UAV_motion/linear/vel/x,/SCIT_drone/UAV_motion/linear/vel/y,/SCIT_drone/UAV_motion/linear/vel/z,/SCIT_drone/UAV_motion/timestamp,/SCIT_drone/UAV_motion_expect/angular/acc/x,/SCIT_drone/UAV_motion_expect/angular/acc/y,/SCIT_drone/UAV_motion_expect/angular/acc/z,/SCIT_drone/UAV_motion_expect/angular/jerk/x,/SCIT_drone/UAV_motion_expect/angular/jerk/y,/SCIT_drone/UAV_motion_expect/angular/jerk/z,/SCIT_drone/UAV_motion_expect/angular/q/w,/SCIT_drone/UAV_motion_expect/angular/q/x,/SCIT_drone/UAV_motion_expect/angular/q/y,/SCIT_drone/UAV_motion_expect/angular/q/z,/SCIT_drone/UAV_motion_expect/angular/vel/x,/SCIT_drone/UAV_motion_expect/angular/vel/y,/SCIT_drone/UAV_motion_expect/angular/vel/z,/SCIT_drone/UAV_motion_expect/linear/acc/x,/SCIT_drone/UAV_motion_expect/linear/acc/y,/SCIT_drone/UAV_motion_expect/linear/acc/z,/SCIT_drone/UAV_motion_expect/linear/jerk/x,/SCIT_drone/UAV_motion_expect/linear/jerk/y,/SCIT_drone/UAV_motion_expect/linear/jerk/z,/SCIT_drone/UAV_motion_expect/linear/pos/x,/SCIT_drone/UAV_motion_expect/linear/pos/y,/SCIT_drone/UAV_motion_expect/linear/pos/z,/SCIT_drone/UAV_motion_expect/linear/vel/x,/SCIT_drone/UAV_motion_expect/linear/vel/y,/SCIT_drone/UAV_motion_expect/linear/vel/z,/SCIT_drone/UAV_motion_expect/timestamp
1710833060.650823,,,,,,,,,,,,,,,,,,,,,,,,,,,0.000000000,0.000000000,0.000000000,0.000000000,0.000000000,0.000000000,1.000000000,0.000000000,0.000000000,0.000000000,0.000000000,0.000000000,0.000000000,1.476104114,-1.856233495,0.000000000,0.000000000,0.000000000,0.000000000,-0.622408572,0.782692513,2.000000000,-1.205346440,-0.958509177,0.000000000,0.000000000
1710833060.654478,0.000000000,0.000000000,0.000000000,0.000000000,0.000000000,0.000000000,0.991177976,0.121682972,0.052332889,0.004563403,0.000000000,0.000000000,0.000000000,1.544430852,-1.962594688,-0.016168895,0.000000000,0.000000000,0.000000000,-0.629081964,0.813066840,2.009088516,-1.222173214,-0.960523546,0.000982460,1710833060645315.000000000,,,,,,,,,,,,,,,,,,,,,,,,,,
1710833060.670795,,,,,,,,,,,,,,,,,,,,,,,,,,,0.000000000,0.000000000,0.000000000,0.000000000,0.000000000,0.000000000,1.000000000,0.000000000,0.000000000,0.000000000,0.000000000,0.000000000,0.000000000,1.532552925,-1.809908196,0.000000000,0.000000000,0.000000000,0.000000000,-0.646210567,0.763159159,2.000000000,-1.175265076,-0.995164249,0.000000000,0.000000000
1710833060.674545,0.000000000,0.000000000,0.000000000,0.000000000,0.000000000,0.000000000,0.991214931,0.119598798,0.056330051,0.004012558,0.000000000,0.000000000,0.000000000,1.588106155,-1.874059439,0.003468238,0.000000000,0.000000000,0.000000000,-0.657999814,0.789436162,2.009234905,-1.184693694,-1.006329298,0.000981242,1710833060669315.000000000,,,,,,,,,,,,,,,,,,,,,,,,,,
1710833060.690798,,,,,,,,,,,,,,,,,,,,,,,,,,,0.000000000,0.000000000,0.000000000,0.000000000,0.000000000,0.000000000,1.000000000,0.000000000,0.000000000,0.000000000,0.000000000,0.000000000,0.000000000,1.587548743,-1.761866946,0.000000000,0.000000000,0.000000000,0.000000000,-0.669399899,0.742902265,2.000000000,-1.144069459,-1.030875820,0.000000000,0.000000000
1710833060.694493,0.000000000,0.000000000,0.000000000,0.000000000,0.000000000,0.000000000,0.991245627,0.118094146,0.058929183,0.003651039,0.000000000,0.000000000,0.000000000,1.624969692,-1.831657151,-0.030835899,0.000000000,0.000000000,0.000000000,-0.676775694,0.773086667,2.009352922,-1.158789039,-1.035928965,0.000435951,1710833060685396.000000000,,,,,,,,,,,,,,,,,,,,,,,,,,
1710833060.710805,,,,,,,,,,,,,,,,,,,,,,,,,,,0.000000000,0.000000000,0.000000000,0.000000000,0.000000000,0.000000000,1.000000000,0.000000000,0.000000000,0.000000000,0.000000000,0.000000000,0.000000000,1.641039426,-1.712155293,0.000000000,0.000000000,0.000000000,0.000000000,-0.691954582,0.721941034,2.000000000,-1.111789165,-1.065610030,0.000000000,0.000000000
1710833060.714456,0.000000000,0.000000000,0.000000000,0.000000000,0.000000000,0.000000000,0.991305530,0.115579948,0.062809259,0.003129154,0.000000000,0.000000000,0.000000000,1.725897193,-1.768127084,0.010206810,0.000000000,0.000000000,0.000000000,-0.704152822,0.747694314,2.009547949,-1.118313789,-1.078948498,0.000067824,1710833060709396.000000000,,,,,,,,,,,,,,,,,,,,,,,,,,
1710833060.730820,,,,,,,,,,,,,,,,,,,,,,,,,,,0.000000000,0.000000000,0.000000000,0.000000000,0.000000000,0.000000000,1.000000000,0.000000000,0.000000000,0.000000000,0.000000000,0.000000000,0.000000000,1.692974262,-1.660820368,0.000000000,0.000000000,0.000000000,0.000000000,-0.713853232,0.700295340,2.000000000,-1.078454797,-1.099333950,0.000000000,0.000000000
1710833060.734454,0.000000000,0.000000000,0.000000000,0.000000000,0.000000000,0.000000000,0.991336882,0.113921955,0.065309353,0.002798495,0.000000000,0.000000000,0.000000000,1.725986600,-1.670911908,-0.044953938,0.000000000,0.000000000,0.000000000,-0.721871018,0.730209112,2.009665966,-1.090601444,-1.106305599,-0.000137449,1710833060725396.000000000,,,,,,,,,,,,,,,,,,,,,,,,,,
1710833060.750815,,,,,,,,,,,,,,,,,,,,,,,,,,,0.000000000,0.000000000,0.000000000,0.000000000,0.000000000,0.000000000,1.000000000,0.000000000,0.000000000,0.000000000,0.000000000,0.000000000,0.000000000,1.743304011,-1.607910841,0.000000000,0.000000000,0.000000000,0.000000000,-0.735075086,0.677985706,2.000000000,-1.044097961,-1.132015605,0.000000000,0.000000000
1710833060.754503,0.000000000,0.000000000,0.000000000,0.000000000,0.000000000,0.000000000,0.991381109,0.111357749,0.068976589,0.002294871,0.000000000,0.000000000,0.000000000,1.799434423,-1.631647348,-0.047253368,0.000000000,0.000000000,0.000000000,-0.747607827,0.703176558,2.009806395,-1.047646761,-1.146390438,-0.000795474,1710833060749396.000000000,,,,,,,,,,,,,,,,,,,,,,,,,,
1710833060.770764,,,,,,,,,,,,,,,,,,,,,,,,,,,0.000000000,0.000000000,0.000000000,0.000000000,0.000000000,0.000000000,1.000000000,0.000000000,0.000000000,0.000000000,0.000000000,0.000000000,0.000000000,1.792004660,-1.553449531,0.000000000,0.000000000,0.000000000,0.000000000,-0.755610021,0.655021753,2.000000000,-1.008733474,-1.163639403,0.000000000,0.000000000
1710833060.774516,0.000000000,0.000000000,0.000000000,0.000000000,0.000000000,0.000000000,0.991414905,0.109528176,0.071387529,0.001970301,0.000000000,0.000000000,0.000000000,1.839235425,-1.605406404,-0.036236233,0.000000000,0.000000000,0.000000000,-0.764189482,0.684638858,2.009873390,-1.018236160,-1.171805739,-0.001568194,1710833060765396.000000000,,,,,,,,,,,,,,,,,,,,,,,,,,
1710833060.790817,,,,,,,,,,,,,,,,,,,,,,,,,,,0.000000000,0.000000000,0.000000000,0.000000000,0.000000000,0.000000000,1.000000000,0.000000000,0.000000000,0.000000000,0.000000000,0.000000000,0.000000000,1.838981798,-1.497542017,0.000000000,0.000000000,0.000000000,0.000000000,-0.775418226,0.631447998,2.000000000,-0.972429893,-1.194144039,0.000000000,0.000000000
1710833060.794502,0.000000000,0.000000000,0.000000000,0.000000000,0.000000000,0.000000000,0.991462588,0.106715366,0.074909754,0.001513539,0.000000000,0.000000000,0.000000000,1.856204145,-1.549027430,-0.002025923,0.000000000,0.000000000,0.000000000,-0.787922502,0.656084955,2.010060310,-0.973368168,-1.209578991,-0.001652826,1710833060789477.000000000,,,,,,,,,,,,,,,,,,,,,,,,,,
1710833060.810814,,,,,,,,,,,,,,,,,,,,,,,,,,,0.000000000,0.000000000,0.000000000,0.000000000,0.000000000,0.000000000,1.000000000,0.000000000,0.000000000,0.000000000,0.000000000,0.000000000,0.000000000,1.884215422,-1.440214703,0.000000000,0.000000000,0.000000000,0.000000000,-0.794491268,0.607275576,2.000000000,-0.935204364,-1.223516522,0.000000000,0.000000000
1710833060.814476,0.000000000,0.000000000,0.000000000,0.000000000,0.000000000,0.000000000,0.991497159,0.104755498,0.077190496,0.001213985,0.000000000,0.000000000,0.000000000,1.906365156,-1.467436552,-0.008966133,0.000000000,0.000000000,0.000000000,-0.803065896,0.636555374,2.010185242,-0.942598760,-1.233574271,-0.001725609,1710833060805477.000000000,,,,,,,,,,,,,,,,,,,,,,,,,,
1710833060.830809,,,,,,,,,,,,,,,,,,,,,,,,,,,0.000000000,0.000000000,0.000000000,0.000000000,0.000000000,0.000000000,1.000000000,0.000000000,0.000000000,0.000000000,0.000000000,0.000000000,0.000000000,1.927662645,-1.381521940,0.000000000,0.000000000,0.000000000,0.000000000,-0.812811063,0.582527404,2.000000000,-0.897092180,-1.251729006,0.000000000,0.000000000
1710833060.834492,0.000000000,0.000000000,0.000000000,0.000000000,0.000000000,0.000000000,0.991562903,0.101548083,0.080562167,0.000817258,0.000000000,0.000000000,0.000000000,2.010867000,-1.423776150,0.005842972,0.000000000,0.000000000,0.000000000,-0.824876726,0.606563330,2.010343075,-0.895272493,-1.268025041,-0.002181659,1710833060829477.000000000,,,,,,,,,,,,,,,,,,,,,,,,,,
1710833060.850809,,,,,,,,,,,,,,,,,,,,,,,,,,,0.000000000,0.000000000,0.000000000,0.000000000,0.000000000,0.000000000,1.000000000,0.000000000,0.000000000,0.000000000,0.000000000,0.000000000,0.000000000,1.969282277,-1.321519375,0.000000000,0.000000000,0.000000000,0.000000000,-0.830360242,0.557226945,2.000000000,-0.858129474,-1.278754741,0.000000000,0.000000000
1710833060.854531,0.000000000,0.000000000,0.000000000,0.000000000,0.000000000,0.000000000,0.991597056,0.099455222,0.082726538,0.000554227,0.000000000,0.000000000,0.000000000,2.007767558,-1.410692930,0.005407797,0.000000000,0.000000000,0.000000000,-0.838795364,0.586115062,2.010438442,-0.863191366,-1.290674329,-0.001912490,1710833060845477.000000000,,,,,,,,,,,,,,,,,,,,,,,,,,
1710833060.870815,,,,,,,,,,,,,,,,,,,,,,,,,,,0.000000000,0.000000000,0.000000000,0.000000000,0.000000000,0.000000000,1.000000000,0.000000000,0.000000000,0.000000000,0.000000000,0.000000000,0.000000000,2.009034859,-1.260263894,0.000000000,0.000000000,0.000000000,0.000000000,-0.847122168,0.531398187,2.000000000,-0.818353188,-1.304568106,0.000000000,0.000000000
1710833060.874501,0.000000000,0.000000000,0.000000000,0.000000000,0.000000000,0.000000000,0.991643667,0.096287459,0.085858271,0.000142540,0.000000000,0.000000000,0.000000000,2.044878900,-1.268267632,-0.034437806,0.000000000,0.000000000,0.000000000,-0.858734250,0.554792583,2.010648012,-0.814542890,-1.321972251,-0.002664587,1710833060869477.000000000,,,,,,,,,,,,,,,,,,,,,,,,,,
1710833060.890808,,,,,,,,,,,,,,,,,,,,,,,,,,,0.000000000,0.000000000,0.000000000,0.000000000,0.000000000,0.000000000,1.000000000,0.000000000,0.000000000,0.000000000,0.000000000,0.000000000,0.000000000,2.046900977,-1.197782340,0.000000000,0.000000000,0.000000000,0.000000000,-0.863088654,0.505052447,2.000000000,-0.777780750,-1.329156495,0.000000000,0.000000000
1710833060.894514,0.000000000,0.000000000,0.000000000,0.000000000,0.000000000,0.000000000,0.991679847,0.094091065,0.087852560,-0.000116697,0.000000000,0.000000000,0.000000000,2.069146367,-1.219634505,-0.039068008,0.000000000,0.000000000,0.000000000,-0.871387184,0.533502340,2.010758638,-0.781346917,-1.342081904,-0.003552296,1710833060885558.000000000,,,,,,,,,,,,,,,,,,,,,,,,,,
1710833060.910840,,,,,,,,,,,,,,,,,,,,,,,,,,,0.000000000,0.000000000,0.000000000,0.000000000,0.000000000,0.000000000,1.000000000,0.000000000,0.000000000,0.000000000,0.000000000,0.000000000,0.000000000,2.082807226,-1.134195841,0.000000000,0.000000000,0.000000000,0.000000000,-0.878228750,0.478240800,2.000000000,-0.736490814,-1.352472241,0.000000000,0.000000000
1710833060.914524,0.000000000,0.000000000,0.000000000,0.000000000,0.000000000,0.000000000,0.991733253,0.090706334,0.090758935,-0.000491865,0.000000000,0.000000000,0.000000000,2.136625350,-1.172497869,-0.045153487,0.000000000,0.000000000,0.000000000,-0.889379799,0.500980437,2.010921240,-0.730659783,-1.370886922,-0.004351932,1710833060909558.000000000,,,,,,,,,,,,,,,,,,,,,,,,,,
1710833060.930789,,,,,,,,,,,,,,,,,,,,,,,,,,,0.000000000,0.000000000,0.000000000,0.000000000,0.000000000,0.000000000,1.000000000,0.000000000,0.000000000,0.000000000,0.000000000,0.000000000,0.000000000,2.116738793,-1.069534025,0.000000000,0.000000000,0.000000000,0.000000000,-0.892536208,0.450975740,2.000000000,-0.694502622,-1.374505726,0.000000000,0.000000000
1710833060.934500,0.000000000,0.000000000,0.000000000,0.000000000,0.000000000,0.000000000,0.991769552,0.088398978,0.092618749,-0.000712344,0.000000000,0.000000000,0.000000000,2.155490220,-1.088425517,-0.093604438,0.000000000,0.000000000,0.000000000,-0.900706410,0.478930324,2.011041641,-0.696376979,-1.388563871,-0.005600106,1710833060925558.000000000,,,,,,,,,,,,,,,,,,,,,,,,,,
1710833060.950840,,,,,,,,,,,,,,,,,,,,,,,,,,,0.000000000,0.000000000,0.000000000,0.000000000,0.000000000,0.000000000,1.000000000,0.000000000,0.000000000,0.000000000,0.000000000,0.000000000,0.000000000,2.148663507,-1.003858197,0.000000000,0.000000000,0.000000000,0.000000000,-0.905997464,0.423283114,2.000000000,-0.651855980,-1.395236060,0.000000000,0.000000000
1710833060.954511,0.000000000,0.000000000,0.000000000,0.000000000,0.000000000,0.000000000,0.991837204,0.084698454,0.095311217,-0.001029470,0.000000000,0.000000000,0.000000000,2.165153623,-1.025840640,0.016018690,0.000000000,0.000000000,0.000000000,-0.916688681,0.445370674,2.011169195,-0.644812465,-1.413634419,-0.006286108,1710833060949558.000000000,,,,,,,,,,,,,,,,,,,,,,,,,,
1710833060.970791,,,,,,,,,,,,,,,,,,,,,,,,,,,0.000000000,0.000000000,0.000000000,0.000000000,0.000000000,0.000000000,1.000000000,0.000000000,0.000000000,0.000000000,0.000000000,0.000000000,0.000000000,2.178551101,-0.937230625,0.000000000,0.000000000,0.000000000,0.000000000,-0.918599756,0.395189180,2.000000000,-0.608591323,-1.414643589,0.000000000,0.000000000
1710833060.974501,0.000000000,0.000000000,0.000000000,0.000000000,0.000000000,0.000000000,0.991873741,0.082275435,0.097034939,-0.001240032,0.000000000,0.000000000,0.000000000,2.213686705,-0.983297825,-0.008994713,0.000000000,0.000000000,0.000000000,-0.926661551,0.422669262,2.011238098,-0.609751701,-1.429697871,-0.006258253,1710833060965558.000000000,,,,,,,,,,,,,,,,,,,,,,,,,,
1710833060.990831,,,,,,,,,,,,,,,,,,,,,,,,,,,0.000000000,0.000000000,0.000000000,0.000000000,0.000000000,0.000000000,1.000000000,0.000000000,0.000000000,0.000000000,0.000000000,0.000000000,0.000000000,2.206373240,-0.869714477,0.000000000,0.000000000,0.000000000,0.000000000,-0.930331136,0.366720572,2.000000000,-0.564749667,-1.432709913,0.000000000,0.000000000
1710833060.994526,0.000000000,0.000000000,0.000000000,0.000000000,0.000000000,0.000000000,0.991929412,0.078608505,0.099470817,-0.001508190,0.000000000,0.000000000,0.000000000,2.174208681,-0.882777169,-0.044061031,0.000000000,0.000000000,0.000000000,-0.940577865,0.388160080,2.011278391,-0.556952536,-1.451691270,-0.007132154,1710833060989639.000000000,,,,,,,,,,,,,,,,,,,,,,,,,,
1710833061.010813,,,,,,,,,,,,,,,,,,,,,,,,,,,0.000000000,0.000000000,0.000000000,0.000000000,0.000000000,0.000000000,1.000000000,0.000000000,0.000000000,0.000000000,0.000000000,0.000000000,0.000000000,2.232115773,-0.801339705,0.000000000,0.000000000,0.000000000,0.000000000,-0.941185636,0.337889920,2.000000000,-0.520350464,-1.449425844,0.000000000,0.000000000
1710833061.014490,0.000000000,0.000000000,0.000000000,0.000000000,0.000000000,0.000000000,0.991971016,0.076091252,0.100999974,-0.001677826,0.000000000,0.000000000,0.000000000,2.234660089,-0.840485096,-0.015617232,0.000000000,0.000000000,0.000000000,-0.949163616,0.364870578,2.011281729,-0.521459162,-1.465236068,-0.007557162,1710833061005639.000000000,,,,,,,,,,,,,,,,,,,,,,,,,,
1710833061.030852,,,,,,,,,,,,,,,,,,,,,,,,,,,0.000000000,0.000000000,0.000000000,0.000000000,0.000000000,0.000000000,1.000000000,0.000000000,0.000000000,0.000000000,0.000000000,0.000000000,0.000000000,2.255728795,-0.732238860,0.000000000,0.000000000,0.000000000,0.000000000,-0.951142216,0.308753115,2.000000000,-0.475479785,-1.464758976,0.000000000,0.000000000
1710833061.034490,0.000000000,0.000000000,0.000000000,0.000000000,0.000000000,0.000000000,0.992027640,0.072236650,0.103244461,-0.001902734,0.000000000,0.000000000,0.000000000,2.254795283,-0.740915537,-0.033083430,0.000000000,0.000000000,0.000000000,-0.960985899,0.329550534,2.011306047,-0.467458934,-1.483621240,-0.007954336,1710833061029639.000000000,,,,,,,,,,,,,,,,,,,,,,,,,,
1710833061.050811,,,,,,,,,,,,,,,,,,,,,,,,,,,0.000000000,0.000000000,0.000000000,0.000000000,0.000000000,0.000000000,1.000000000,0.000000000,0.000000000,0.000000000,0.000000000,0.000000000,0.000000000,2.277203191,-0.662443788,0.000000000,0.000000000,0.000000000,0.000000000,-0.960197029,0.279323584,2.000000000,-0.430158309,-1.478703389,0.000000000,0.000000000
1710833061.054558,0.000000000,0.000000000,0.000000000,0.000000000,0.000000000,0.000000000,0.992065728,0.069619812,0.104664914,-0.002011812,0.000000000,0.000000000,0.000000000,2.256147563,-0.685468316,-0.064356253,0.000000000,0.000000000,0.000000000,-0.968148291,0.305768937,2.011353493,-0.430985332,-1.494703889,-0.008690590,1710833061045639.000000000,,,,,,,,,,,,,,,,,,,,,,,,,,
1710833061.070843,,,,,,,,,,,,,,,,,,,,,,,,,,,0.000000000,0.000000000,0.000000000,0.000000000,0.000000000,0.000000000,1.000000000,0.000000000,0.000000000,0.000000000,0.000000000,0.000000000,0.000000000,2.296518600,-0.592020663,0.000000000,0.000000000,0.000000000,0.000000000,-0.968341493,0.249629231,2.000000000,-0.384429006,-1.491245862,0.000000000,0.000000000
1710833061.074508,0.000000000,0.000000000,0.000000000,0.000000000,0.000000000,0.000000000,0.992131531,0.065467253,0.106698014,-0.002162957,0.000000000,0.000000000,0.000000000,2.303585410,-0.608146191,-0.015918515,0.000000000,0.000000000,0.000000000,-0.977806091,0.269772977,2.011374474,-0.375819355,-1.510244727,-0.009895558,1710833061069639.000000000,,,,,,,,,,,,,,,,,,,,,,,,,,
1710833061.090830,,,,,,,,,,,,,,,,,,,,,,,,,,,0.000000000,0.000000000,0.000000000,0.000000000,0.000000000,0.000000000,1.000000000,0.000000000,0.000000000,0.000000000,0.000000000,0.000000000,0.000000000,2.313656710,-0.521036250,0.000000000,0.000000000,0.000000000,0.000000000,-0.975567885,0.219698208,2.000000000,-0.338335231,-1.502374505,0.000000000,0.000000000
1710833061.094524,0.000000000,0.000000000,0.000000000,0.000000000,0.000000000,0.000000000,0.992166817,0.062781461,0.107974552,-0.002234044,0.000000000,0.000000000,0.000000000,2.282686036,-0.551525518,-0.022862062,0.000000000,0.000000000,0.000000000,-0.983518779,0.245593384,2.011367083,-0.338820010,-1.519510746,-0.010041582,1710833061085720.000000000,,,,,,,,,,,,,,,,,,,,,,,,,,
1710833061.110848,,,,,,,,,,,,,,,,,,,,,,,,,,,0.000000000,0.000000000,0.000000000,0.000000000,0.000000000,0.000000000,1.000000000,0.000000000,0.000000000,0.000000000,0.000000000,0.000000000,0.000000000,2.328601272,-0.449557850,0.000000000,0.000000000,0.000000000,0.000000000,-0.981869353,0.189558891,2.000000000,-0.291920685,-1.512078766,0.000000000,0.000000000
1710833061.114480,0.000000000,0.000000000,0.000000000,0.000000000,0.000000000,0.000000000,0.992216825,0.058725920,0.109780565,-0.002331287,0.000000000,0.000000000,0.000000000,2.353020012,-0.436753035,-0.078166602,0.000000000,0.000000000,0.000000000,-0.990991950,0.209058762,2.011423111,-0.283260286,-1.531651974,-0.011386042,1710833061109720.000000000,,,,,,,,,,,,,,,,,,,,,,,,,,
1710833061.130801,,,,,,,,,,,,,,,,,,,,,,,,,,,0.000000000,0.000000000,0.000000000,0.000000000,0.000000000,0.000000000,1.000000000,0.000000000,0.000000000,0.000000000,0.000000000,0.000000000,0.000000000,2.341343880,-0.377617504,0.000000000,0.000000000,0.000000000,0.000000000,-0.987242354,0.159224792,2.000000000,-0.245206174,-1.520353187,0.000000000,0.000000000
1710833061.134552,0.000000000,0.000000000,0.000000000,0.000000000,0.000000000,0.000000000,0.992255569,0.055957131,0.110870577,-0.002366856,0.000000000,0.000000000,0.000000000,2.314016223,-0.418916345,-0.024705892,0.000000000,0.000000000,0.000000000,-0.995233357,0.184554592,2.011427164,-0.246122748,-1.538412809,-0.011926250,1710833061125720.000000000,,,,,,,,,,,,,,,,,,,,,,,,,,
1710833061.150826,,,,,,,,,,,,,,,,,,,,,,,,,,,0.000000000,0.000000000,0.000000000,0.000000000,0.000000000,0.000000000,1.000000000,0.000000000,0.000000000,0.000000000,0.000000000,0.000000000,0.000000000,2.351859832,-0.305354675,0.000000000,0.000000000,0.000000000,0.000000000,-0.991676471,0.128754717,2.000000000,-0.198282259,-1.527181727,0.000000000,0.000000000
1710833061.154511,0.000000000,0.000000000,0.000000000,0.000000000,0.000000000,0.000000000,0.992302537,0.051775001,0.112469174,-0.002412407,0.000000000,0.000000000,0.000000000,2.346221358,-0.291243196,-0.002132263,0.000000000,0.000000000,0.000000000,-1.000488639,0.147611409,2.011477947,-0.189919159,-1.546541929,-0.011996509,1710833061149720.000000000,,,,,,,,,,,,,,,,,,,,,,,,,,
1710833061.170739,,,,,,,,,,,,,,,,,,,,,,,,,,,0.000000000,0.000000000,0.000000000,0.000000000,0.000000000,0.000000000,1.000000000,0.000000000,0.000000000,0.000000000,0.000000000,0.000000000,0.000000000,2.360146016,-0.232802343,0.000000000,0.000000000,0.000000000,0.000000000,-0.995170392,0.098162570,2.000000000,-0.151170355,-1.532562366,0.000000000,0.000000000
1710833061.174503,0.000000000,0.000000000,0.000000000,0.000000000,0.000000000,0.000000000,0.992333472,0.048954543,0.113454364,-0.002427582,0.000000000,0.000000000,0.000000000,2.337628976,-0.259146094,-0.064413296,0.000000000,0.000000000,0.000000000,-1.003249645,0.122884460,2.011582136,-0.152418688,-1.550884485,-0.013010321,1710833061165720.000000000,,,,,,,,,,,,,,,,,,,,,,,,,,
1710833061.190819,,,,,,,,,,,,,,,,,,,,,,,,,,,0.000000000,0.000000000,0.000000000,0.000000000,0.000000000,0.000000000,1.000000000,0.000000000,0.000000000,0.000000000,0.000000000,0.000000000,0.000000000,2.366194576,-0.160029295,0.000000000,0.000000000,0.000000000,0.000000000,-0.997720806,0.067477357,2.000000000,-0.103915128,-1.536490003,0.000000000,0.000000000
1710833061.194492,0.000000000,0.000000000,0.000000000,0.000000000,0.000000000,0.000000000,0.992390394,0.044561334,0.114760712,-0.002371356,0.000000000,0.000000000,0.000000000,2.290108379,-0.190838139,0.012756353,0.000000000,0.000000000,0.000000000,-1.006623387,0.085411713,2.011816263,-0.096595399,-1.555872083,-0.013545709,1710833061189800.000000000,,,,,,,,,,,,,,,,,,,,,,,,,,
1710833061.210825,,,,,,,,,,,,,,,,,,,,,,,,,,,0.000000000,0.000000000,0.000000000,0.000000000,0.000000000,0.000000000,1.000000000,0.000000000,0.000000000,0.000000000,0.000000000,0.000000000,0.000000000,2.369999778,-0.087104525,0.000000000,0.000000000,0.000000000,0.000000000,-0.999325293,0.036728170,2.000000000,-0.056561381,-1.538960913,0.000000000,0.000000000
1710833061.214724,0.000000000,0.000000000,0.000000000,0.000000000,0.000000000,0.000000000,0.992419958,0.041661724,0.115591466,-0.002341908,0.000000000,0.000000000,0.000000000,2.358513884,-0.138252974,0.023009372,0.000000000,0.000000000,0.000000000,-1.008233309,0.060294081,2.012078285,-0.059170276,-1.558254004,-0.013178301,1710833061205800.000000000,,,,,,,,,,,,,,,,,,,,,,,,,,
1710833061.230840,,,,,,,,,,,,,,,,,,,,,,,,,,,0.000000000,0.000000000,0.000000000,0.000000000,0.000000000,0.000000000,1.000000000,0.000000000,0.000000000,0.000000000,0.000000000,0.000000000,0.000000000,2.371558014,-0.014097172,0.000000000,0.000000000,0.000000000,0.000000000,-0.999982333,0.005944161,2.000000000,-0.009154008,-1.539972755,0.000000000,0.000000000
1710833061.234498,0.000000000,0.000000000,0.000000000,0.000000000,0.000000000,0.000000000,0.992458880,0.037367236,0.116722144,-0.002255828,0.000000000,0.000000000,0.000000000,2.378493780,-0.028118491,-0.029308954,0.000000000,0.000000000,0.000000000,-1.009510279,0.022596760,2.012419462,-0.002188180,-1.559680462,-0.013671338,1710833061229800.000000000,,,,,,,,,,,,,,,,,,,,,,,,,,
1710833061.250841,,,,,,,,,,,,,,,,,,,,,,,,,,,0.000000000,0.000000000,0.000000000,0.000000000,0.000000000,0.000000000,1.000000000,0.000000000,0.000000000,0.000000000,0.000000000,0.000000000,0.000000000,2.370866908,0.058959722,0.000000000,0.000000000,0.000000000,0.000000000,-0.999690924,-0.024860737,2.000000000,0.038285534,-1.539523985,0.000000000,0.000000000
1710833061.254536,0.000000000,0.000000000,0.000000000,0.000000000,0.000000000,0.000000000,0.992488742,0.034418985,0.117374688,-0.002165432,0.000000000,0.000000000,0.000000000,2.362817526,0.033974648,-0.022261636,0.000000000,0.000000000,0.000000000,-1.009596467,-0.002528875,2.012607336,0.035489053,-1.559456825,-0.014072062,1710833061245800.000000000,,,,,,,,,,,,,,,,,,,,,,,,,,
1710833061.270853,,,,,,,,,,,,,,,,,,,,,,,,,,,0.000000000,0.000000000,0.000000000,0.000000000,0.000000000,0.000000000,1.000000000,0.000000000,0.000000000,0.000000000,0.000000000,0.000000000,0.000000000,2.367927800,0.131924531,0.000000000,0.000000000,0.000000000,0.000000000,-0.998451630,-0.055626807,2.000000000,0.085665281,-1.537615473,0.000000000,0.000000000
1710833061.274553,0.000000000,0.000000000,0.000000000,0.000000000,0.000000000,0.000000000,0.992517054,0.030029086,0.118338913,-0.002026323,0.000000000,0.000000000,0.000000000,2.346342430,0.129923224,-0.020925771,0.000000000,0.000000000,0.000000000,-1.008572578,-0.040174913,2.012848854,0.091870286,-1.557327986,-0.013898574,1710833061269800.000000000,,,,,,,,,,,,,,,,,,,,,,,,,,
1710833061.290893,,,,,,,,,,,,,,,,,,,,,,,,,,,0.000000000,0.000000000,0.000000000,0.000000000,0.000000000,0.000000000,1.000000000,0.000000000,0.000000000,0.000000000,0.000000000,0.000000000,0.000000000,2.362743689,0.204764264,0.000000000,0.000000000,0.000000000,0.000000000,-0.996265718,-0.086340138,2.000000000,0.132963809,-1.534249168,0.000000000,0.000000000
1710833061.294553,0.000000000,0.000000000,0.000000000,0.000000000,0.000000000,0.000000000,0.992537081,0.027043780,0.118892089,-0.001909425,0.000000000,0.000000000,0.000000000,2.280892896,0.169445382,-0.059546091,0.000000000,0.000000000,0.000000000,-1.007126093,-0.065221421,2.012977123,0.129060149,-1.554738402,-0.014636992,1710833061285880.000000000,,,,,,,,,,,,,,,,,,,,,,,,,,
1710833061.310813,,,,,,,,,,,,,,,,,,,,,,,,,,,0.000000000,0.000000000,0.000000000,0.000000000,0.000000000,0.000000000,1.000000000,0.000000000,0.000000000,0.000000000,0.000000000,0.000000000,0.000000000,2.355319493,0.277409862,0.000000000,0.000000000,0.000000000,0.000000000,-0.993135259,-0.116971611,2.000000000,0.180136276,-1.529428261,0.000000000,0.000000000
1710833061.314512,0.000000000,0.000000000,0.000000000,0.000000000,0.000000000,0.000000000,0.992571414,0.022432860,0.119565576,-0.001711768,0.000000000,0.000000000,0.000000000,2.356184646,0.262632966,0.005427632,0.000000000,0.000000000,0.000000000,-1.003825426,-0.102687195,2.013106346,0.185366035,-1.549100876,-0.015451347,1710833061309880.000000000,,,,,,,,,,,,,,,,,,,,,,,,,,
1710833061.330878,,,,,,,,,,,,,,,,,,,,,,,,,,,0.000000000,0.000000000,0.000000000,0.000000000,0.000000000,0.000000000,1.000000000,0.000000000,0.000000000,0.000000000,0.000000000,0.000000000,0.000000000,2.345662249,0.349792452,0.000000000,0.000000000,0.000000000,0.000000000,-0.989063221,-0.147492184,2.000000000,0.227137958,-1.523157323,0.000000000,0.000000000
1710833061.334535,0.000000000,0.000000000,0.000000000,0.000000000,0.000000000,0.000000000,0.992584348,0.019380620,0.119992778,-0.001559594,0.000000000,0.000000000,0.000000000,2.337692305,0.305414200,-0.015733298,0.000000000,0.000000000,0.000000000,-1.000857234,-0.127572298,2.013127565,0.223025396,-1.544503093,-0.015578875,1710833061325880.000000000,,,,,,,,,,,,,,,,,,,,,,,,,,
1710833061.350845,,,,,,,,,,,,,,,,,,,,,,,,,,,0.000000000,0.000000000,0.000000000,0.000000000,0.000000000,0.000000000,1.000000000,0.000000000,0.000000000,0.000000000,0.000000000,0.000000000,0.000000000,2.333774676,0.421879018,0.000000000,0.000000000,0.000000000,0.000000000,-0.984050751,-0.177887938,2.000000000,0.273947418,-1.515438120,0.000000000,0.000000000
1710833061.354519,0.000000000,0.000000000,0.000000000,0.000000000,0.000000000,0.000000000,0.992593229,0.014830465,0.120570607,-0.001298541,0.000000000,0.000000000,0.000000000,2.339124680,0.407561660,-0.058586709,0.000000000,0.000000000,0.000000000,-0.995261312,-0.164726079,2.013119221,0.279190928,-1.535513401,-0.016410021,1710833061349880.000000000,,,,,,,,,,,,,,,,,,,,,,,,,,
1710833061.370737,,,,,,,,,,,,,,,,,,,,,,,,,,,0.000000000,0.000000000,0.000000000,0.000000000,0.000000000,0.000000000,1.000000000,0.000000000,0.000000000,0.000000000,0.000000000,0.000000000,0.000000000,2.319679820,0.493529815,0.000000000,0.000000000,0.000000000,0.000000000,-0.978107567,-0.208099947,2.000000000,0.320473910,-1.506285616,0.000000000,0.000000000
1710833061.374419,0.000000000,0.000000000,0.000000000,0.000000000,0.000000000,0.000000000,0.992601335,0.011738123,0.120845847,-0.001078293,0.000000000,0.000000000,0.000000000,2.337433398,0.496268272,-0.059718732,0.000000000,0.000000000,0.000000000,-0.990774989,-0.189346626,2.013079405,0.316633970,-1.527867675,-0.017306343,1710833061365880.000000000,,,,,,,,,,,,,,,,,,,,,,,,,,
1710833061.390802,,,,,,,,,,,,,,,,,,,,,,,,,,,0.000000000,0.000000000,0.000000000,0.000000000,0.000000000,0.000000000,1.000000000,0.000000000,0.000000000,0.000000000,0.000000000,0.000000000,0.000000000,2.303385706,0.564712703,0.000000000,0.000000000,0.000000000,0.000000000,-0.971237051,-0.238114658,2.000000000,0.366696565,-1.495705022,0.000000000,0.000000000
1710833061.394443,0.000000000,0.000000000,0.000000000,0.000000000,0.000000000,0.000000000,0.992600203,0.007146723,0.121215478,-0.000771150,0.000000000,0.000000000,0.000000000,2.270464171,0.529574840,-0.013478765,0.000000000,0.000000000,0.000000000,-0.982914984,-0.226015776,2.013081074,0.372300148,-1.515377402,-0.017235808,1710833061389961.000000000,,,,,,,,,,,,,,,,,,,,,,,,,,
1710833061.410811,,,,,,,,,,,,,,,,,,,,,,,,,,,0.000000000,0.000000000,0.000000000,0.000000000,0.000000000,0.000000000,1.000000000,0.000000000,0.000000000,0.000000000,0.000000000,0.000000000,0.000000000,2.284907782,0.635360193,0.000000000,0.000000000,0.000000000,0.000000000,-0.963445718,-0.267903616,2.000000000,0.412571559,-1.483706370,0.000000000,0.000000000
1710833061.414542,0.000000000,0.000000000,0.000000000,0.000000000,0.000000000,0.000000000,0.992594838,0.004034191,0.121404760,-0.000540484,0.000000000,0.000000000,0.000000000,2.316351980,0.628277659,-0.042788219,0.000000000,0.000000000,0.000000000,-0.976926148,-0.250279576,2.013089418,0.409176886,-1.505767465,-0.017655240,1710833061405961.000000000,,,,,,,,,,,,,,,,,,,,,,,,,,
1710833061.430809,,,,,,,,,,,,,,,,,,,,,,,,,,,0.000000000,0.000000000,0.000000000,0.000000000,0.000000000,0.000000000,1.000000000,0.000000000,0.000000000,0.000000000,0.000000000,0.000000000,0.000000000,2.264263566,0.705405308,0.000000000,0.000000000,0.000000000,0.000000000,-0.954740955,-0.297438579,2.000000000,0.458055400,-1.470301035,0.000000000,0.000000000
1710833061.434483,0.000000000,0.000000000,0.000000000,0.000000000,0.000000000,0.000000000,0.992594421,-0.000683033,0.121473819,-0.000166055,0.000000000,0.000000000,0.000000000,2.289183438,0.710442662,0.002225395,0.000000000,0.000000000,0.000000000,-0.966815412,-0.286352396,2.013052225,0.464527547,-1.489338517,-0.018347580,1710833061429961.000000000,,,,,,,,,,,,,,,,,,,,,,,,,,
1710833061.450855,,,,,,,,,,,,,,,,,,,,,,,,,,,0.000000000,0.000000000,0.000000000,0.000000000,0.000000000,0.000000000,1.000000000,0.000000000,0.000000000,0.000000000,0.000000000,0.000000000,0.000000000,2.241472632,0.774781636,0.000000000,0.000000000,0.000000000,0.000000000,-0.945131015,-0.326691544,2.000000000,0.503104965,-1.455501727,0.000000000,0.000000000
1710833061.454518,0.000000000,0.000000000,0.000000000,0.000000000,0.000000000,0.000000000,0.992581904,-0.003773815,0.121519625,0.000086132,0.000000000,0.000000000,0.000000000,2.278324217,0.771418214,0.015411293,0.000000000,0.000000000,0.000000000,-0.959342539,-0.310169816,2.013027191,0.501032889,-1.477539539,-0.018292885,1710833061445961.000000000,,,,,,,,,,,,,,,,,,,,,,,,,,
1710833061.470841,,,,,,,,,,,,,,,,,,,,,,,,,,,0.000000000,0.000000000,0.000000000,0.000000000,0.000000000,0.000000000,1.000000000,0.000000000,0.000000000,0.000000000,0.000000000,0.000000000,0.000000000,2.216543718,0.843457227,0.000000000,0.000000000,0.000000000,0.000000000,-0.934619581,-0.355649038,2.000000000,0.547699504,-1.439314120,0.000000000,0.000000000
1710833061.474564,0.000000000,0.000000000,0.000000000,0.000000000,0.000000000,0.000000000,0.992565513,-0.008314843,0.121426374,0.000488977,0.000000000,0.000000000,0.000000000,2.263829112,0.843390822,-0.031557400,0.000000000,0.000000000,0.000000000,-0.947024882,-0.345506161,2.012955427,0.555357754,-1.457677484,-0.018924477,1710833061469961.000000000,,,,,,,,,,,,,,,,,,,,,,,,,,
1710833061.490884,,,,,,,,,,,,,,,,,,,,,,,,,,,0.000000000,0.000000000,0.000000000,0.000000000,0.000000000,0.000000000,1.000000000,0.000000000,0.000000000,0.000000000,0.000000000,0.000000000,0.000000000,2.189525149,0.911298944,0.000000000,0.000000000,0.000000000,0.000000000,-0.923227032,-0.384254924,2.000000000,0.591752568,-1.421769595,0.000000000,0.000000000
1710833061.494605,0.000000000,0.000000000,0.000000000,0.000000000,0.000000000,0.000000000,0.992556512,-0.011342318,0.121253252,0.000758097,0.000000000,0.000000000,0.000000000,2.198319624,0.907333180,-0.034794580,0.000000000,0.000000000,0.000000000,-0.938083470,-0.368784666,2.012879848,0.590963006,-1.443326831,-0.019293871,1710833061486041.000000000,,,,,,,,,,,,,,,,,,,,,,,,,,
1710833061.510898,,,,,,,,,,,,,,,,,,,,,,,,,,,0.000000000,0.000000000,0.000000000,0.000000000,0.000000000,0.000000000,1.000000000,0.000000000,0.000000000,0.000000000,0.000000000,0.000000000,0.000000000,2.160430721,0.978276671,0.000000000,0.000000000,0.000000000,0.000000000,-0.910959184,-0.412496503,2.000000000,0.635244599,-1.402877109,0.000000000,0.000000000
1710833061.514546,0.000000000,0.000000000,0.000000000,0.000000000,0.000000000,0.000000000,0.992546737,-0.015892494,0.120818980,0.001170066,0.000000000,0.000000000,0.000000000,2.212077379,0.986889005,-0.063156476,0.000000000,0.000000000,0.000000000,-0.923587978,-0.403250158,2.012764215,0.644523382,-1.420502305,-0.019706100,1710833061510041.000000000,,,,,,,,,,,,,,,,,,,,,,,,,,
1710833061.530988,,,,,,,,,,,,,,,,,,,,,,,,,,,0.000000000,0.000000000,0.000000000,0.000000000,0.000000000,0.000000000,1.000000000,0.000000000,0.000000000,0.000000000,0.000000000,0.000000000,0.000000000,2.129288017,1.044326906,0.000000000,0.000000000,0.000000000,0.000000000,-0.897827667,-0.440347000,2.000000000,0.678134363,-1.382654573,0.000000000,0.000000000
1710833061.534602,0.000000000,0.000000000,0.000000000,0.000000000,0.000000000,0.000000000,0.992539227,-0.018905541,0.120442457,0.001472972,0.000000000,0.000000000,0.000000000,2.188265324,1.037850976,-0.022919150,0.000000000,0.000000000,0.000000000,-0.913210154,-0.425904125,2.012667179,0.679623008,-1.403820276,-0.020300264,1710833061526041.000000000,,,,,,,,,,,,,,,,,,,,,,,,,,
1710833061.550908,,,,,,,,,,,,,,,,,,,,,,,,,,,0.000000000,0.000000000,0.000000000,0.000000000,0.000000000,0.000000000,1.000000000,0.000000000,0.000000000,0.000000000,0.000000000,0.000000000,0.000000000,2.096126562,1.109387029,0.000000000,0.000000000,0.000000000,0.000000000,-0.883844931,-0.467780009,2.000000000,0.720381196,-1.361121161,0.000000000,0.000000000
1710833061.554532,0.000000000,0.000000000,0.000000000,0.000000000,0.000000000,0.000000000,0.992542863,-0.023462707,0.119600676,0.001953501,0.000000000,0.000000000,0.000000000,2.137742937,1.141056418,0.027684262,0.000000000,0.000000000,0.000000000,-0.896587491,-0.459363699,2.012478590,0.731160700,-1.377208710,-0.020834433,1710833061550041.000000000,,,,,,,,,,,,,,,,,,,,,,,,,,
1710833061.570824,,,,,,,,,,,,,,,,,,,,,,,,,,,0.000000000,0.000000000,0.000000000,0.000000000,0.000000000,0.000000000,1.000000000,0.000000000,0.000000000,0.000000000,0.000000000,0.000000000,0.000000000,2.060977798,1.173395357,0.000000000,0.000000000,0.000000000,0.000000000,-0.869024234,-0.494769523,2.000000000,0.761945046,-1.338297287,0.000000000,0.000000000
1710833061.574636,0.000000000,0.000000000,0.000000000,0.000000000,0.000000000,0.000000000,0.992540479,-0.026418490,0.118997991,0.002263103,0.000000000,0.000000000,0.000000000,2.106562257,1.153737307,0.032653334,0.000000000,0.000000000,0.000000000,-0.884812236,-0.481304735,2.012428522,0.765141547,-1.358922124,-0.020252112,1710833061566041.000000000,,,,,,,,,,,,,,,,,,,,,,,,,,
1710833061.590803,,,,,,,,,,,,,,,,,,,,,,,,,,,0.000000000,0.000000000,0.000000000,0.000000000,0.000000000,0.000000000,1.000000000,0.000000000,0.000000000,0.000000000,0.000000000,0.000000000,0.000000000,2.023856182,1.236322085,0.000000000,0.000000000,0.000000000,0.000000000,-0.853371672,-0.521302973,2.000000000,0.802806559,-1.314192342,0.000000000,0.000000000
1710833061.594496,0.000000000,0.000000000,0.000000000,0.000000000,0.000000000,0.000000000,0.992542088,-0.030755263,0.117927738,0.002746481,0.000000000,0.000000000,0.000000000,2.042991427,1.233973254,-0.020268281,0.000000000,0.000000000,0.000000000,-0.866759539,-0.513584971,2.012552500,0.815468490,-1.329458594,-0.020253079,1710833061590122.000000000,,,,,,,,,,,,,,,,,,,,,,,,,,
1710833061.610826,,,,,,,,,,,,,,,,,,,,,,,,,,,0.000000000,0.000000000,0.000000000,0.000000000,0.000000000,0.000000000,1.000000000,0.000000000,0.000000000,0.000000000,0.000000000,0.000000000,0.000000000,1.984833680,1.298045225,0.000000000,0.000000000,0.000000000,0.000000000,-0.836917589,-0.547328923,2.000000000,0.842886520,-1.288853055,0.000000000,0.000000000
1710833061.614657,0.000000000,0.000000000,0.000000000,0.000000000,0.000000000,0.000000000,0.992546201,-0.033609618,0.117102325,0.003086177,0.000000000,0.000000000,0.000000000,2.038411796,1.289173961,0.022507040,0.000000000,0.000000000,0.000000000,-0.854237914,-0.534683943,2.012676716,0.848134518,-1.308914781,-0.020114202,1710833061606122.000000000,,,,,,,,,,,,,,,,,,,,,,,,,,
1710833061.630909,,,,,,,,,,,,,,,,,,,,,,,,,,,0.000000000,0.000000000,0.000000000,0.000000000,0.000000000,0.000000000,1.000000000,0.000000000,0.000000000,0.000000000,0.000000000,0.000000000,0.000000000,1.943929384,1.358537705,0.000000000,0.000000000,0.000000000,0.000000000,-0.819670035,-0.572835957,2.000000000,0.882167352,-1.262291823,0.000000000,0.000000000
1710833061.634491,0.000000000,0.000000000,0.000000000,0.000000000,0.000000000,0.000000000,0.992555559,-0.037839167,0.115710042,0.003592027,0.000000000,0.000000000,0.000000000,2.031713724,1.371964812,0.009383773,0.000000000,0.000000000,0.000000000,-0.834412575,-0.565696657,2.012855291,0.896977425,-1.276394248,-0.020093234,1710833061630122.000000000,,,,,,,,,,,,,,,,,,,,,,,,,,
1710833061.650932,,,,,,,,,,,,,,,,,,,,,,,,,,,0.000000000,0.000000000,0.000000000,0.000000000,0.000000000,0.000000000,1.000000000,0.000000000,0.000000000,0.000000000,0.000000000,0.000000000,0.000000000,1.901182073,1.417742174,0.000000000,0.000000000,0.000000000,0.000000000,-0.801645363,-0.597799893,2.000000000,0.920611812,-1.234533829,0.000000000,0.000000000
1710833061.654554,0.000000000,0.000000000,0.000000000,0.000000000,0.000000000,0.000000000,0.992562354,-0.040604901,0.114699058,0.003922164,0.000000000,0.000000000,0.000000000,1.972101629,1.408800483,-0.041793799,0.000000000,0.000000000,0.000000000,-0.820510209,-0.585930467,2.012954235,0.928631902,-1.253986478,-0.020441148,1710833061646122.000000000,,,,,,,,,,,,,,,,,,,,,,,,,,
1710833061.670833,,,,,,,,,,,,,,,,,,,,,,,,,,,0.000000000,0.000000000,0.000000000,0.000000000,0.000000000,0.000000000,1.000000000,0.000000000,0.000000000,0.000000000,0.000000000,0.000000000,0.000000000,1.856632276,1.475602499,0.000000000,0.000000000,0.000000000,0.000000000,-0.782860661,-0.622197063,2.000000000,0.958183453,-1.205605389,0.000000000,0.000000000
1710833061.674546,0.000000000,0.000000000,0.000000000,0.000000000,0.000000000,0.000000000,0.992589533,-0.044745769,0.112890519,0.004426956,0.000000000,0.000000000,0.000000000,1.908272505,1.502126455,0.017393380,0.000000000,0.000000000,0.000000000,-0.798669457,-0.615605831,2.013040543,0.974851072,-1.218532801,-0.020915898,1710833061670122.000000000,,,,,,,,,,,,,,,,,,,,,,,,,,
1710833061.690836,,,,,,,,,,,,,,,,,,,,,,,,,,,0.000000000,0.000000000,0.000000000,0.000000000,0.000000000,0.000000000,1.000000000,0.000000000,0.000000000,0.000000000,0.000000000,0.000000000,0.000000000,1.810322231,1.532063825,0.000000000,0.000000000,0.000000000,0.000000000,-0.763333740,-0.646004335,2.000000000,0.994846652,-1.175533930,0.000000000,0.000000000
1710833061.694558,0.000000000,0.000000000,0.000000000,0.000000000,0.000000000,0.000000000,0.992598236,-0.047421902,0.111703329,0.004737398,0.000000000,0.000000000,0.000000000,1.873400542,1.553232127,0.022317855,0.000000000,0.000000000,0.000000000,-0.783458471,-0.634903133,2.013076782,1.005370617,-1.193516374,-0.020416880,1710833061686202.000000000,,,,,,,,,,,,,,,,,,,,,,,,,,
1710833061.710874,,,,,,,,,,,,,,,,,,,,,,,,,,,0.000000000,0.000000000,0.000000000,0.000000000,0.000000000,0.000000000,1.000000000,0.000000000,0.000000000,0.000000000,0.000000000,0.000000000,0.000000000,1.762271626,1.587099512,0.000000000,0.000000000,0.000000000,0.000000000,-0.743072901,-0.669210478,2.000000000,1.030584111,-1.144332238,0.000000000,0.000000000
1710833061.714520,0.000000000,0.000000000,0.000000000,0.000000000,0.000000000,0.000000000,0.992603064,-0.051428620,0.109849729,0.005230361,0.000000000,0.000000000,0.000000000,1.829773188,1.588582993,-0.040034531,0.000000000,0.000000000,0.000000000,-0.759691477,-0.663089454,2.013094902,1.049645424,-1.155453205,-0.020792756,1710833061710202.000000000,,,,,,,,,,,,,,,,,,,,,,,,,,
1710833061.730843,,,,,,,,,,,,,,,,,,,,,,,,,,,0.000000000,0.000000000,0.000000000,0.000000000,0.000000000,0.000000000,1.000000000,0.000000000,0.000000000,0.000000000,0.000000000,0.000000000,0.000000000,1.712573612,1.640602868,0.000000000,0.000000000,0.000000000,0.000000000,-0.722117421,-0.691770504,2.000000000,1.065326550,-1.112060800,0.000000000,0.000000000
1710833061.734537,0.000000000,0.000000000,0.000000000,0.000000000,0.000000000,0.000000000,0.992607832,-0.054028742,0.108536445,0.005537104,0.000000000,0.000000000,0.000000000,1.829713583,1.640558243,-0.018529361,0.000000000,0.000000000,0.000000000,-0.743234754,-0.681364894,2.013075829,1.078896999,-1.129060268,-0.021044586,1710833061726202.000000000,,,,,,,,,,,,,,,,,,,,,,,,,,
1710833061.750840,,,,,,,,,,,,,,,,,,,,,,,,,,,0.000000000,0.000000000,0.000000000,0.000000000,0.000000000,0.000000000,1.000000000,0.000000000,0.000000000,0.000000000,0.000000000,0.000000000,0.000000000,1.661251929,1.692550789,0.000000000,0.000000000,0.000000000,0.000000000,-0.700477311,-0.713674672,2.000000000,1.099058967,-1.078735032,0.000000000,0.000000000
1710833061.754554,0.000000000,0.000000000,0.000000000,0.000000000,0.000000000,0.000000000,0.992613316,-0.057863865,0.106465422,0.005982235,0.000000000,0.000000000,0.000000000,1.695051789,1.700595021,-0.003339490,0.000000000,0.000000000,0.000000000,-0.717644274,-0.707980573,2.013076067,1.121234059,-1.088703632,-0.020912228,1710833061750202.000000000,,,,,,,,,,,,,,,,,,,,,,,,,,
1710833061.770846,,,,,,,,,,,,,,,,,,,,,,,,,,,0.000000000,0.000000000,0.000000000,0.000000000,0.000000000,0.000000000,1.000000000,0.000000000,0.000000000,0.000000000,0.000000000,0.000000000,0.000000000,1.608355235,1.742894025,0.000000000,0.000000000,0.000000000,0.000000000,-0.678173088,-0.734902213,2.000000000,1.131749381,-1.044386529,0.000000000,0.000000000
1710833061.774575,0.000000000,0.000000000,0.000000000,0.000000000,0.000000000,0.000000000,0.992617488,-0.060356304,0.105014324,0.006300416,0.000000000,0.000000000,0.000000000,1.701235771,1.769408584,0.022991793,0.000000000,0.000000000,0.000000000,-0.700005591,-0.725177646,2.013078213,1.148182869,-1.060794115,-0.020373831,1710833061766202.000000000,,,,,,,,,,,,,,,,,,,,,,,,,,
1710833061.790811,,,,,,,,,,,,,,,,,,,,,,,,,,,0.000000000,0.000000000,0.000000000,0.000000000,0.000000000,0.000000000,1.000000000,0.000000000,0.000000000,0.000000000,0.000000000,0.000000000,0.000000000,1.553933681,1.791584846,0.000000000,0.000000000,0.000000000,0.000000000,-0.655225897,-0.755433004,2.000000000,1.163366797,-1.009047857,0.000000000,0.000000000
1710833061.794510,0.000000000,0.000000000,0.000000000,0.000000000,0.000000000,0.000000000,0.992636621,-0.064063832,0.102579318,0.006770330,0.000000000,0.000000000,0.000000000,1.607636328,1.824738557,0.014885026,0.000000000,0.000000000,0.000000000,-0.672697127,-0.750120938,2.013043880,1.187958002,-1.017569423,-0.020730160,1710833061790283.000000000,,,,,,,,,,,,,,,,,,,,,,,,,,
1710833061.810850,,,,,,,,,,,,,,,,,,,,,,,,,,,0.000000000,0.000000000,0.000000000,0.000000000,0.000000000,0.000000000,1.000000000,0.000000000,0.000000000,0.000000000,0.000000000,0.000000000,0.000000000,1.498038862,1.838577089,0.000000000,0.000000000,0.000000000,0.000000000,-0.631657496,-0.775247578,2.000000000,1.193881241,-0.972752520,0.000000000,0.000000000
1710833061.814619,0.000000000,0.000000000,0.000000000,0.000000000,0.000000000,0.000000000,0.992642701,-0.066452712,0.100969046,0.007069404,0.000000000,0.000000000,0.000000000,1.633584499,1.876048744,-0.000059139,0.000000000,0.000000000,0.000000000,-0.653968394,-0.766150236,2.013006210,1.214021087,-0.987434685,-0.020677337,1710833061806283.000000000,,,,,,,,,,,,,,,,,,,,,,,,,,
1710833061.830843,,,,,,,,,,,,,,,,,,,,,,,,,,,0.000000000,0.000000000,0.000000000,0.000000000,0.000000000,0.000000000,1.000000000,0.000000000,0.000000000,0.000000000,0.000000000,0.000000000,0.000000000,1.440695027,1.883848185,0.000000000,0.000000000,0.000000000,0.000000000,-0.607478108,-0.794336420,2.000000000,1.223278057,-0.935516263,0.000000000,0.000000000
1710833061.834546,0.000000000,0.000000000,0.000000000,0.000000000,0.000000000,0.000000000,0.992646039,-0.069980226,0.098491699,0.007493963,0.000000000,0.000000000,0.000000000,1.530736685,1.932285726,-0.009702286,0.000000000,0.000000000,0.000000000,-0.625071466,-0.789281964,2.012912273,1.251197815,-0.941381752,-0.021078937,1710833061830283.000000000,,,,,,,,,,,,,,,,,,,,,,,,,,
1710833061.850829,,,,,,,,,,,,,,,,,,,,,,,,,,,0.000000000,0.000000000,0.000000000,0.000000000,0.000000000,0.000000000,1.000000000,0.000000000,0.000000000,0.000000000,0.000000000,0.000000000,0.000000000,1.382013343,1.927310371,0.000000000,0.000000000,0.000000000,0.000000000,-0.582734607,-0.812662524,2.000000000,1.251500256,-0.897411273,0.000000000,0.000000000
1710833061.854574,0.000000000,0.000000000,0.000000000,0.000000000,0.000000000,0.000000000,0.992656469,-0.072236136,0.096718431,0.007779127,0.000000000,0.000000000,0.000000000,1.518055797,1.976393163,-0.002163462,0.000000000,0.000000000,0.000000000,-0.605293214,-0.804087341,2.012823820,1.275264263,-0.910331547,-0.021294458,1710833061846283.000000000,,,,,,,,,,,,,,,,,,,,,,,,,,
1710833061.870917,,,,,,,,,,,,,,,,,,,,,,,,,,,0.000000000,0.000000000,0.000000000,0.000000000,0.000000000,0.000000000,1.000000000,0.000000000,0.000000000,0.000000000,0.000000000,0.000000000,0.000000000,1.322021390,1.968945299,0.000000000,0.000000000,0.000000000,0.000000000,-0.557438623,-0.830218153,2.000000000,1.278535924,-0.858455459,0.000000000,0.000000000
1710833061.874587,0.000000000,0.000000000,0.000000000,0.000000000,0.000000000,0.000000000,0.992667913,-0.075550631,0.093997918,0.008189694,0.000000000,0.000000000,0.000000000,1.397863030,1.990482211,-0.025813701,0.000000000,0.000000000,0.000000000,-0.574876904,-0.825350046,2.012683868,1.310202479,-0.862798095,-0.021053741,1710833061870283.000000000,,,,,,,,,,,,,,,,,,,,,,,,,,
1710833061.890837,,,,,,,,,,,,,,,,,,,,,,,,,,,0.000000000,0.000000000,0.000000000,0.000000000,0.000000000,0.000000000,1.000000000,0.000000000,0.000000000,0.000000000,0.000000000,0.000000000,0.000000000,1.260776046,2.008713495,0.000000000,0.000000000,0.000000000,0.000000000,-0.531614139,-0.846986663,2.000000000,1.304359428,-0.818685754,0.000000000,0.000000000
1710833061.894542,0.000000000,0.000000000,0.000000000,0.000000000,0.000000000,0.000000000,0.992679536,-0.077699505,0.092079192,0.008465643,0.000000000,0.000000000,0.000000000,1.345718133,2.038219220,-0.027458630,0.000000000,0.000000000,0.000000000,-0.554130971,-0.838880420,2.012571335,1.332252264,-0.830151618,-0.021582834,1710833061886364.000000000,,,,,,,,,,,,,,,,,,,,,,,,,,
1710833061.910861,,,,,,,,,,,,,,,,,,,,,,,,,,,0.000000000,0.000000000,0.000000000,0.000000000,0.000000000,0.000000000,1.000000000,0.000000000,0.000000000,0.000000000,0.000000000,0.000000000,0.000000000,1.198335377,2.046577257,0.000000000,0.000000000,0.000000000,0.000000000,-0.505285639,-0.862952156,2.000000000,1.328946287,-0.778139864,0.000000000,0.000000000
1710833061.914535,0.000000000,0.000000000,0.000000000,0.000000000,0.000000000,0.000000000,0.992710471,-0.080811508,0.088978976,0.008839272,0.000000000,0.000000000,0.000000000,1.321956515,2.077855170,0.037201913,0.000000000,0.000000000,0.000000000,-0.522328198,-0.858194530,2.012356997,1.364273190,-0.780894101,-0.022194982,1710833061910364.000000000,,,,,,,,,,,,,,,,,,,,,,,,,,
1710833061.930825,,,,,,,,,,,,,,,,,,,,,,,,,,,0.000000000,0.000000000,0.000000000,0.000000000,0.000000000,0.000000000,1.000000000,0.000000000,0.000000000,0.000000000,0.000000000,0.000000000,0.000000000,1.134758581,2.082500686,0.000000000,0.000000000,0.000000000,0.000000000,-0.478478084,-0.878099495,2.000000000,1.352273189,-0.736856231,0.000000000,0.000000000
1710833061.934544,0.000000000,0.000000000,0.000000000,0.000000000,0.000000000,0.000000000,0.992724359,-0.082850210,0.086905420,0.009036565,0.000000000,0.000000000,0.000000000,1.292467117,2.105981112,0.015705824,0.000000000,0.000000000,0.000000000,-0.500684738,-0.870403588,2.012196541,1.384883046,-0.747113347,-0.021721654,1710833061926364.000000000,,,,,,,,,,,,,,,,,,,,,,,,,,
1710833061.950916,,,,,,,,,,,,,,,,,,,,,,,,,,,0.000000000,0.000000000,0.000000000,0.000000000,0.000000000,0.000000000,1.000000000,0.000000000,0.000000000,0.000000000,0.000000000,0.000000000,0.000000000,1.070073642,2.116466051,0.000000000,0.000000000,0.000000000,0.000000000,-0.451203273,-0.892421205,2.000000000,1.374328621,-0.694853022,0.000000000,0.000000000
1710833061.954559,0.000000000,0.000000000,0.000000000,0.000000000,0.000000000,0.000000000,0.992751181,-0.085772082,0.083672255,0.009342179,0.000000000,0.000000000,0.000000000,1.176968217,2.141334116,-0.038857805,0.000000000,0.000000000,0.000000000,-0.467590541,-0.887696803,2.011935234,1.413743138,-0.696074486,-0.022225996,1710833061950364.000000000,,,,,,,,,,,,,,,,,,,,,,,,,,
1710833061.970846,,,,,,,,,,,,,,,,,,,,,,,,,,,0.000000000,0.000000000,0.000000000,0.000000000,0.000000000,0.000000000,1.000000000,0.000000000,0.000000000,0.000000000,0.000000000,0.000000000,0.000000000,1.004405956,2.148407508,0.000000000,0.000000000,0.000000000,0.000000000,-0.423514080,-0.905889521,2.000000000,1.395069827,-0.652211667,0.000000000,0.000000000
1710833061.974620,0.000000000,0.000000000,0.000000000,0.000000000,0.000000000,0.000000000,0.992773056,-0.087679379,0.081380427,0.009557518,0.000000000,0.000000000,0.000000000,1.128688455,2.145834267,0.010047806,0.000000000,0.000000000,0.000000000,-0.445131510,-0.898538291,2.011735916,1.432090402,-0.661630094,-0.022537215,1710833061966364.000000000,,,,,,,,,,,,,,,,,,,,,,,,,,
1710833061.990820,,,,,,,,,,,,,,,,,,,,,,,,,,,0.000000000,0.000000000,0.000000000,0.000000000,0.000000000,0.000000000,1.000000000,0.000000000,0.000000000,0.000000000,0.000000000,0.000000000,0.000000000,0.937786006,2.178312088,0.000000000,0.000000000,0.000000000,0.000000000,-0.395423360,-0.918498975,2.000000000,1.414488386,-0.608951959,0.000000000,0.000000000
1710833061.994499,0.000000000,0.000000000,0.000000000,0.000000000,0.000000000,0.000000000,0.992812991,-0.090352617,0.077860877,0.009826864,0.000000000,0.000000000,0.000000000,1.029011755,2.152818572,0.022330997,0.000000000,0.000000000,0.000000000,-0.411265194,-0.914096534,2.011939526,1.457826138,-0.609630048,-0.021735884,1710833061990445.000000000,,,,,,,,,,,,,,,,,,,,,,,,,,
1710833062.010828,,,,,,,,,,,,,,,,,,,,,,,,,,,0.000000000,0.000000000,0.000000000,0.000000000,0.000000000,0.000000000,1.000000000,0.000000000,0.000000000,0.000000000,0.000000000,0.000000000,0.000000000,0.870276953,2.206151439,0.000000000,0.000000000,0.000000000,0.000000000,-0.366957744,-0.930237612,2.000000000,1.432565887,-0.565114911,0.000000000,0.000000000
1710833062.014508,0.000000000,0.000000000,0.000000000,0.000000000,0.000000000,0.000000000,0.992840827,-0.092100665,0.075396791,0.010004927,0.000000000,0.000000000,0.000000000,0.977799296,2.186164260,-0.025191111,0.000000000,0.000000000,0.000000000,-0.388450325,-0.923865139,2.012211800,1.473576784,-0.574516356,-0.022069665,1710833062006445.000000000,,,,,,,,,,,,,,,,,,,,,,,,,,
1710833062.030853,,,,,,,,,,,,,,,,,,,,,,,,,,,0.000000000,0.000000000,0.000000000,0.000000000,0.000000000,0.000000000,1.000000000,0.000000000,0.000000000,0.000000000,0.000000000,0.000000000,0.000000000,0.801942802,2.231899166,0.000000000,0.000000000,0.000000000,0.000000000,-0.338144220,-0.941094303,2.000000000,1.449285190,-0.520742085,0.000000000,0.000000000
1710833062.034549,0.000000000,0.000000000,0.000000000,0.000000000,0.000000000,0.000000000,0.992892981,-0.094579838,0.071507297,0.010242749,0.000000000,0.000000000,0.000000000,0.904217362,2.290934324,0.013418961,0.000000000,0.000000000,0.000000000,-0.353713930,-0.937418401,2.012541533,1.496136427,-0.520589948,-0.022640415,1710833062030445.000000000,,,,,,,,,,,,,,,,,,,,,,,,,,
1710833062.050859,,,,,,,,,,,,,,,,,,,,,,,,,,,0.000000000,0.000000000,0.000000000,0.000000000,0.000000000,0.000000000,1.000000000,0.000000000,0.000000000,0.000000000,0.000000000,0.000000000,0.000000000,0.732848339,2.255530859,0.000000000,0.000000000,0.000000000,0.000000000,-0.309010106,-0.951058755,2.000000000,1.464630446,-0.475875551,0.000000000,0.000000000
1710833062.054545,0.000000000,0.000000000,0.000000000,0.000000000,0.000000000,0.000000000,0.992919981,-0.096213050,0.068886898,0.010375938,0.000000000,0.000000000,0.000000000,0.842303038,2.275809646,0.037640100,0.000000000,0.000000000,0.000000000,-0.330233306,-0.945711076,2.012804508,1.509762526,-0.484235227,-0.022012558,1710833062046445.000000000,,,,,,,,,,,,,,,,,,,,,,,,,,
1710833062.070920,,,,,,,,,,,,,,,,,,,,,,,,,,,0.000000000,0.000000000,0.000000000,0.000000000,0.000000000,0.000000000,1.000000000,0.000000000,0.000000000,0.000000000,0.000000000,0.000000000,0.000000000,0.663024328,2.277034230,0.000000000,0.000000000,0.000000000,0.000000000,-0.279568373,-0.960125786,2.000000000,1.478593674,-0.430535283,0.000000000,0.000000000
1710833062.074582,0.000000000,0.000000000,0.000000000,0.000000000,0.000000000,0.000000000,0.992969275,-0.098464005,0.064854205,0.010534802,0.000000000,0.000000000,0.000000000,0.773504376,2.263464034,-0.012626406,0.000000000,0.000000000,0.000000000,-0.294571310,-0.957037330,2.013142347,1.528546810,-0.429946899,-0.022191318,1710833062070445.000000000,,,,,,,,,,,,,,,,,,,,,,,,,,
1710833062.090851,,,,,,,,,,,,,,,,,,,,,,,,,,,0.000000000,0.000000000,0.000000000,0.000000000,0.000000000,0.000000000,1.000000000,0.000000000,0.000000000,0.000000000,0.000000000,0.000000000,0.000000000,0.592606129,2.296367593,0.000000000,0.000000000,0.000000000,0.000000000,-0.249876097,-0.968277820,2.000000000,1.491147805,-0.384809180,0.000000000,0.000000000
1710833062.094565,0.000000000,0.000000000,0.000000000,0.000000000,0.000000000,0.000000000,0.992997408,-0.099955469,0.062064376,0.010633248,0.000000000,0.000000000,0.000000000,0.692638430,2.243827180,-0.014558600,0.000000000,0.000000000,0.000000000,-0.270529240,-0.963851333,2.013249397,1.539832115,-0.393741846,-0.022670783,1710833062086525.000000000,,,,,,,,,,,,,,,,,,,,,,,,,,
1710833062.110884,,,,,,,,,,,,,,,,,,,,,,,,,,,0.000000000,0.000000000,0.000000000,0.000000000,0.000000000,0.000000000,1.000000000,0.000000000,0.000000000,0.000000000,0.000000000,0.000000000,0.000000000,0.521626088,2.313523799,0.000000000,0.000000000,0.000000000,0.000000000,-0.219946917,-0.975511842,2.000000000,1.502288199,-0.338718243,0.000000000,0.000000000
1710833062.114539,0.000000000,0.000000000,0.000000000,0.000000000,0.000000000,0.000000000,0.993029952,-0.102083236,0.057924673,0.010744491,0.000000000,0.000000000,0.000000000,0.613182783,2.316258848,-0.006475719,0.000000000,0.000000000,0.000000000,-0.234109461,-0.972956777,2.013256788,1.554795742,-0.338455945,-0.022639943,1710833062110525.000000000,,,,,,,,,,,,,,,,,,,,,,,,,,
1710833062.130844,,,,,,,,,,,,,,,,,,,,,,,,,,,0.000000000,0.000000000,0.000000000,0.000000000,0.000000000,0.000000000,1.000000000,0.000000000,0.000000000,0.000000000,0.000000000,0.000000000,0.000000000,0.450151500,2.328486584,0.000000000,0.000000000,0.000000000,0.000000000,-0.189809208,-0.981820994,2.000000000,1.512004294,-0.292306173,0.000000000,0.000000000
1710833062.134557,0.000000000,0.000000000,0.000000000,0.000000000,0.000000000,0.000000000,0.993044138,-0.103500694,0.055086352,0.010787943,0.000000000,0.000000000,0.000000000,0.576987863,2.318095416,-0.059219310,0.000000000,0.000000000,0.000000000,-0.209609821,-0.978273273,2.013232946,1.563930511,-0.301356703,-0.023167077,1710833062126525.000000000,,,,,,,,,,,,,,,,,,,,,,,,,,
1710833062.150851,,,,,,,,,,,,,,,,,,,,,,,,,,,0.000000000,0.000000000,0.000000000,0.000000000,0.000000000,0.000000000,1.000000000,0.000000000,0.000000000,0.000000000,0.000000000,0.000000000,0.000000000,0.378250130,2.341241761,0.000000000,0.000000000,0.000000000,0.000000000,-0.159491543,-0.987199295,2.000000000,1.520286876,-0.245616970,0.000000000,0.000000000
1710833062.154544,0.000000000,0.000000000,0.000000000,0.000000000,0.000000000,0.000000000,0.993080795,-0.105390213,0.050653707,0.010847966,0.000000000,0.000000000,0.000000000,0.448584557,2.367230132,0.015599653,0.000000000,0.000000000,0.000000000,-0.172571853,-0.985112786,2.013124704,1.575043440,-0.245295689,-0.023744438,1710833062150525.000000000,,,,,,,,,,,,,,,,,,,,,,,,,,
1710833062.170940,,,,,,,,,,,,,,,,,,,,,,,,,,,0.000000000,0.000000000,0.000000000,0.000000000,0.000000000,0.000000000,1.000000000,0.000000000,0.000000000,0.000000000,0.000000000,0.000000000,0.000000000,0.305990145,2.351777238,0.000000000,0.000000000,0.000000000,0.000000000,-0.129022667,-0.991641645,2.000000000,1.527128095,-0.198694902,0.000000000,0.000000000
1710833062.174575,0.000000000,0.000000000,0.000000000,0.000000000,0.000000000,0.000000000,0.993089616,-0.106680505,0.047688853,0.010867129,0.000000000,0.000000000,0.000000000,0.390753150,2.396132797,-0.019924017,0.000000000,0.000000000,0.000000000,-0.147720456,-0.988907516,2.013010025,1.581737757,-0.207194269,-0.023624856,1710833062166525.000000000,,,,,,,,,,,,,,,,,,,,,,,,,,
1710833062.190808,,,,,,,,,,,,,,,,,,,,,,,,,,,0.000000000,0.000000000,0.000000000,0.000000000,0.000000000,0.000000000,1.000000000,0.000000000,0.000000000,0.000000000,0.000000000,0.000000000,0.000000000,0.233404043,2.360086587,0.000000000,0.000000000,0.000000000,0.000000000,-0.098416281,-0.995145334,2.000000000,1.532523776,-0.151561069,0.000000000,0.000000000
1710833062.194477,0.000000000,0.000000000,0.000000000,0.000000000,0.000000000,0.000000000,0.993103683,-0.108438142,0.043226346,0.010857558,0.000000000,0.000000000,0.000000000,0.291672574,2.364053273,-0.049229750,0.000000000,0.000000000,0.000000000,-0.110231109,-0.993437290,2.012796164,1.589442015,-0.150035948,-0.024627222,1710833062190606.000000000,,,,,,,,,,,,,,,,,,,,,,,,,,
1710833062.210878,,,,,,,,,,,,,,,,,,,,,,,,,,,0.000000000,0.000000000,0.000000000,0.000000000,0.000000000,0.000000000,1.000000000,0.000000000,0.000000000,0.000000000,0.000000000,0.000000000,0.000000000,0.160632539,2.366153700,0.000000000,0.000000000,0.000000000,0.000000000,-0.067731719,-0.997703570,2.000000000,1.536463460,-0.104306845,0.000000000,0.000000000
