__time,/SCIT_drone/UAV_motion/angular/acc/x,/SCIT_drone/UAV_motion/angular/acc/y,/SCIT_drone/UAV_motion/angular/acc/z,/SCIT_drone/UAV_motion/angular/jerk/x,/SCIT_drone/UAV_motion/angular/jerk/y,/SCIT_drone/UAV_motion/angular/jerk/z,/SCIT_drone/UAV_motion/angular/q/w,/SCIT_drone/UAV_motion/angular/q/x,/SCIT_drone/UAV_motion/angular/q/y,/SCIT_drone/UAV_motion/angular/q/z,/SCIT_drone/UAV_motion/angular/vel/x,/SCIT_drone/UAV_motion/angular/vel/y,/SCIT_drone/UAV_motion/angular/vel/z,/SCIT_drone/UAV_motion/linear/acc/x,/SCIT_drone/UAV_motion/linear/acc/y,/SCIT_drone/UAV_motion/linear/acc/z,/SCIT_drone/UAV_motion/linear/jerk/x,/SCIT_drone/UAV_motion/linear/jerk/y,/SCIT_drone/UAV_motion/linear/jerk/z,/SCIT_drone/UAV_motion/linear/pos/x,/SCIT_drone/UAV_motion/linear/pos/y,/SCIT_drone/UAV_motion/linear/pos/z,/SCIT_drone/UAV_motion/linear/vel/x,/SCIT_drone/UAV_motion/linear/vel/y,/SCIT_drone/UAV_motion/linear/vel/z,/SCIT_drone/UAV_motion/timestamp,/SCIT_drone/UAV_motion_expect/angular/acc/x,/SCIT_drone/UAV_motion_expect/angular/acc/y,/SCIT_drone/UAV_motion_expect/angular/acc/z,/SCIT_drone/UAV_motion_expect/angular/jerk/x,/SCIT_drone/UAV_motion_expect/angular/jerk/y,/SCIT_drone/UAV_motion_expect/angular/jerk/z,/SCIT_drone/UAV_motion_expect/angular/q/w,/SCIT_drone/UAV_motion_expect/angular/q/x,/SCIT_drone/UAV_motion_expect/angular/q/y,/SCIT_drone/UAV_motion_expect/angular/q/z,/SCIT_drone/UAV_motion_expect/angular/vel/x,/SCIT_drone/UAV_motion_expect/angular/vel/y,/SCIT_drone/UAV_motion_expect/angular/vel/z,/SCIT_drone/UAV_motion_expect/linear/acc/x,/SCIT_drone/UAV_motion_expect/linear/acc/y,/SCIT_drone/UAV_motion_expect/linear/acc/z,/SCIT_drone/UAV_motion_expect/linear/jerk/x,/SCIT_drone/UAV_motion_expect/linear/jerk/y,/SCIT_drone/UAV_motion_expect/linear/jerk/z,/SCIT_drone/UAV_motion_expect/linear/pos/x,/SCIT_drone/UAV_motion_expect/linear/pos/y,/SCIT_drone/UAV_motion_expect/linear/pos/z,/SCIT_drone/UAV_motion_expect/linear/vel/x,/SCIT_drone/UAV_motion_expect/linear/vel/y,/SCIT_drone/UAV_motion_expect/linear/vel/z,/SCIT_drone/UAV_motion_expect/timestamp
1710832808.122431,,,,,,,,,,,,,,,,,,,,,,,,,,,0.000000000,0.000000000,0.000000000,0.000000000,0.000000000,0.000000000,1.000000000,0.000000000,0.000000000,0.000000000,0.000000000,0.000000000,0.000000000,2.353882612,-0.289348919,0.000000000,0.000000000,0.000000000,0.000000000,-0.992529389,0.122005789,2.000000000,-0.187888911,-1.528495221,0.000000000,0.000000000
1710832808.123869,0.000000000,0.000000000,0.000000000,0.000000000,0.000000000,0.000000000,-0.991027594,-0.042339321,-0.117076889,0.048627835,0.000000000,0.000000000,0.000000000,2.308905125,-0.340610743,-0.015529804,0.000000000,0.000000000,0.000000000,-0.996472955,0.184472218,2.074429035,-0.223998263,-1.617629170,-0.109743185,1710832808116955.000000000,,,,,,,,,,,,,,,,,,,,,,,,,,
1710832808.142414,,,,,,,,,,,,,,,,,,,,,,,,,,,0.000000000,0.000000000,0.000000000,0.000000000,0.000000000,0.000000000,1.000000000,0.000000000,0.000000000,0.000000000,0.000000000,0.000000000,0.000000000,2.361677542,-0.216714871,0.000000000,0.000000000,0.000000000,0.000000000,-0.995816170,0.091379187,2.000000000,-0.140723944,-1.533556864,0.000000000,0.000000000
1710832808.143837,0.000000000,0.000000000,0.000000000,0.000000000,0.000000000,0.000000000,-0.991083443,-0.039352089,-0.117811501,0.048223678,0.000000000,0.000000000,0.000000000,2.257959917,-0.300347805,-0.014999881,0.000000000,0.000000000,0.000000000,-0.999238551,0.158981085,2.073953390,-0.187517539,-1.622597218,-0.109991953,1710832808133044.000000000,,,,,,,,,,,,,,,,,,,,,,,,,,
1710832808.162438,,,,,,,,,,,,,,,,,,,,,,,,,,,0.000000000,0.000000000,0.000000000,0.000000000,0.000000000,0.000000000,1.000000000,0.000000000,0.000000000,0.000000000,0.000000000,0.000000000,0.000000000,2.367231183,-0.143884237,0.000000000,0.000000000,0.000000000,0.000000000,-0.998157898,0.060669692,2.000000000,-0.093431324,-1.537163124,0.000000000,0.000000000
1710832808.163883,0.000000000,0.000000000,0.000000000,0.000000000,0.000000000,0.000000000,-0.991166115,-0.034803461,-0.118808910,0.047570977,0.000000000,0.000000000,0.000000000,2.337059006,-0.180482864,0.013208017,0.000000000,0.000000000,0.000000000,-1.002339959,0.120562330,2.073078394,-0.131775126,-1.628230810,-0.109991513,1710832808157044.000000000,,,,,,,,,,,,,,,,,,,,,,,,,,
1710832808.182503,,,,,,,,,,,,,,,,,,,,,,,,,,,0.000000000,0.000000000,0.000000000,0.000000000,0.000000000,0.000000000,1.000000000,0.000000000,0.000000000,0.000000000,0.000000000,0.000000000,0.000000000,2.370539371,-0.070917120,0.000000000,0.000000000,0.000000000,0.000000000,-0.999552816,0.029902649,2.000000000,-0.046050079,-1.539311298,0.000000000,0.000000000
1710832808.183976,0.000000000,0.000000000,0.000000000,0.000000000,0.000000000,0.000000000,-0.991216183,-0.031782404,-0.119403407,0.047150850,0.000000000,0.000000000,0.000000000,2.326997928,-0.097975135,0.040377490,0.000000000,0.000000000,0.000000000,-1.003347874,0.095373660,2.073308468,-0.094755426,-1.630430937,-0.109886929,1710832808173044.000000000,,,,,,,,,,,,,,,,,,,,,,,,,,
1710832808.202417,,,,,,,,,,,,,,,,,,,,,,,,,,,0.000000000,0.000000000,0.000000000,0.000000000,0.000000000,0.000000000,1.000000000,0.000000000,0.000000000,0.000000000,0.000000000,0.000000000,0.000000000,2.371598968,0.002117265,0.000000000,0.000000000,0.000000000,0.000000000,-0.999999601,-0.000892758,2.000000000,0.001374848,-1.539999348,0.000000000,0.000000000
1710832808.203882,0.000000000,0.000000000,0.000000000,0.000000000,0.000000000,0.000000000,-0.991285741,-0.027158983,-0.120261267,0.046393543,0.000000000,0.000000000,0.000000000,2.371533308,0.010952353,0.045418739,0.000000000,0.000000000,0.000000000,-1.003304720,0.058209047,2.074761629,-0.038096119,-1.631275296,-0.108884834,1710832808197044.000000000,,,,,,,,,,,,,,,,,,,,,,,,,,
1710832808.222381,,,,,,,,,,,,,,,,,,,,,,,,,,,0.000000000,0.000000000,0.000000000,0.000000000,0.000000000,0.000000000,1.000000000,0.000000000,0.000000000,0.000000000,0.000000000,0.000000000,0.000000000,2.370408682,0.075158685,0.000000000,0.000000000,0.000000000,0.000000000,-0.999497710,-0.031691132,2.000000000,0.048804342,-1.539226435,0.000000000,0.000000000
1710832808.223849,0.000000000,0.000000000,0.000000000,0.000000000,0.000000000,0.000000000,-0.991325855,-0.024039885,-0.120803401,0.045843273,0.000000000,0.000000000,0.000000000,2.354892898,0.018030405,0.044709072,0.000000000,0.000000000,0.000000000,-1.002585769,0.033348490,2.075550079,-0.000191398,-1.630887985,-0.108197868,1710832808213044.000000000,,,,,,,,,,,,,,,,,,,,,,,,,,
1710832808.242452,,,,,,,,,,,,,,,,,,,,,,,,,,,0.000000000,0.000000000,0.000000000,0.000000000,0.000000000,0.000000000,1.000000000,0.000000000,0.000000000,0.000000000,0.000000000,0.000000000,0.000000000,2.366969937,0.148119766,0.000000000,0.000000000,0.000000000,0.000000000,-0.998047742,-0.062455630,2.000000000,0.096181667,-1.536993484,0.000000000,0.000000000
1710832808.243898,0.000000000,0.000000000,0.000000000,0.000000000,0.000000000,0.000000000,-0.991383910,-0.019319013,-0.121472664,0.045045406,0.000000000,0.000000000,0.000000000,2.343317494,0.137105584,0.082662329,0.000000000,0.000000000,0.000000000,-1.000473261,-0.004030320,2.076586246,0.056007352,-1.628286362,-0.106655531,1710832808237133.000000000,,,,,,,,,,,,,,,,,,,,,,,,,,
1710832808.262418,,,,,,,,,,,,,,,,,,,,,,,,,,,0.000000000,0.000000000,0.000000000,0.000000000,0.000000000,0.000000000,1.000000000,0.000000000,0.000000000,0.000000000,0.000000000,0.000000000,0.000000000,2.361285986,0.220940346,0.000000000,0.000000000,0.000000000,0.000000000,-0.995651068,-0.093160885,2.000000000,0.143467759,-1.533302607,0.000000000,0.000000000
1710832808.263887,0.000000000,0.000000000,0.000000000,0.000000000,0.000000000,0.000000000,-0.991417468,-0.016187487,-0.121862628,0.044484388,0.000000000,0.000000000,0.000000000,2.318258397,0.189647079,0.028460287,0.000000000,0.000000000,0.000000000,-0.998380065,-0.028978702,2.077249289,0.093397222,-1.625555277,-0.106071316,1710832808253133.000000000,,,,,,,,,,,,,,,,,,,,,,,,,,
1710832808.282410,,,,,,,,,,,,,,,,,,,,,,,,,,,0.000000000,0.000000000,0.000000000,0.000000000,0.000000000,0.000000000,1.000000000,0.000000000,0.000000000,0.000000000,0.000000000,0.000000000,0.000000000,2.353362222,0.293551352,0.000000000,0.000000000,0.000000000,0.000000000,-0.992309963,-0.123777772,2.000000000,0.190617764,-1.528157306,0.000000000,0.000000000
1710832808.283901,0.000000000,0.000000000,0.000000000,0.000000000,0.000000000,0.000000000,-0.991464734,-0.011461913,-0.122322865,0.043629415,0.000000000,0.000000000,0.000000000,2.321716398,0.294804573,0.038292259,0.000000000,0.000000000,0.000000000,-0.994205117,-0.066401623,2.078004837,0.149292827,-1.619372725,-0.105232775,1710832808277133.000000000,,,,,,,,,,,,,,,,,,,,,,,,,,
1710832808.302437,,,,,,,,,,,,,,,,,,,,,,,,,,,0.000000000,0.000000000,0.000000000,0.000000000,0.000000000,0.000000000,1.000000000,0.000000000,0.000000000,0.000000000,0.000000000,0.000000000,0.000000000,2.343206161,0.365883908,0.000000000,0.000000000,0.000000000,0.000000000,-0.988027596,-0.154277248,2.000000000,0.237586956,-1.521562460,0.000000000,0.000000000
1710832808.303914,0.000000000,0.000000000,0.000000000,0.000000000,0.000000000,0.000000000,-0.991488338,-0.008321993,-0.122589089,0.043054603,0.000000000,0.000000000,0.000000000,2.310803160,0.328153372,0.016108155,0.000000000,0.000000000,0.000000000,-0.990731239,-0.091319554,2.078462362,0.186361477,-1.614034772,-0.104796380,1710832808293133.000000000,,,,,,,,,,,,,,,,,,,,,,,,,,
1710832808.322312,,,,,,,,,,,,,,,,,,,,,,,,,,,0.000000000,0.000000000,0.000000000,0.000000000,0.000000000,0.000000000,1.000000000,0.000000000,0.000000000,0.000000000,0.000000000,0.000000000,0.000000000,2.330825765,0.437878294,0.000000000,0.000000000,0.000000000,0.000000000,-0.982807324,-0.184634133,2.000000000,0.284336558,-1.513523242,0.000000000,0.000000000
1710832808.323834,0.000000000,0.000000000,0.000000000,0.000000000,0.000000000,0.000000000,-0.991518795,-0.003690270,-0.122881539,0.042156171,0.000000000,0.000000000,0.000000000,2.300659195,0.450357795,-0.020201318,0.000000000,0.000000000,0.000000000,-0.984482288,-0.128611162,2.079063416,0.241722003,-1.604267597,-0.105065003,1710832808317133.000000000,,,,,,,,,,,,,,,,,,,,,,,,,,
1710832808.342389,,,,,,,,,,,,,,,,,,,,,,,,,,,0.000000000,0.000000000,0.000000000,0.000000000,0.000000000,0.000000000,1.000000000,0.000000000,0.000000000,0.000000000,0.000000000,0.000000000,0.000000000,2.316235844,0.509448389,0.000000000,0.000000000,0.000000000,0.000000000,-0.976655393,-0.214812113,2.000000000,0.330810646,-1.504049267,0.000000000,0.000000000
1710832808.343859,0.000000000,0.000000000,0.000000000,0.000000000,0.000000000,0.000000000,-0.991532981,-0.000657781,-0.123012736,0.041590914,0.000000000,0.000000000,0.000000000,2.303313464,0.492483377,-0.037909485,0.000000000,0.000000000,0.000000000,-0.979623675,-0.153382048,2.079306364,0.278407454,-1.596520185,-0.105402656,1710832808333222.000000000,,,,,,,,,,,,,,,,,,,,,,,,,,
1710832808.362408,,,,,,,,,,,,,,,,,,,,,,,,,,,0.000000000,0.000000000,0.000000000,0.000000000,0.000000000,0.000000000,1.000000000,0.000000000,0.000000000,0.000000000,0.000000000,0.000000000,0.000000000,2.299448842,0.580535243,0.000000000,0.000000000,0.000000000,0.000000000,-0.969577048,-0.244786332,2.000000000,0.376970941,-1.493148617,0.000000000,0.000000000
1710832808.363848,0.000000000,0.000000000,0.000000000,0.000000000,0.000000000,0.000000000,-0.991554439,0.003851322,-0.123071536,0.040722176,0.000000000,0.000000000,0.000000000,2.261713147,0.567704439,-0.024846755,0.000000000,0.000000000,0.000000000,-0.971305966,-0.190369576,2.079531431,0.333002299,-1.583181977,-0.105861083,1710832808357222.000000000,,,,,,,,,,,,,,,,,,,,,,,,,,
1710832808.382406,,,,,,,,,,,,,,,,,,,,,,,,,,,0.000000000,0.000000000,0.000000000,0.000000000,0.000000000,0.000000000,1.000000000,0.000000000,0.000000000,0.000000000,0.000000000,0.000000000,0.000000000,2.280480683,0.651071426,0.000000000,0.000000000,0.000000000,0.000000000,-0.961579004,-0.274528356,2.000000000,0.422773658,-1.480831630,0.000000000,0.000000000
1710832808.383871,0.000000000,0.000000000,0.000000000,0.000000000,0.000000000,0.000000000,-0.991568446,0.006825247,-0.123017579,0.040151529,0.000000000,0.000000000,0.000000000,2.247072756,0.624075532,-0.050147995,0.000000000,0.000000000,0.000000000,-0.965082347,-0.214897648,2.079646587,0.368836373,-1.573539734,-0.106564134,1710832808373222.000000000,,,,,,,,,,,,,,,,,,,,,,,,,,
1710832808.402370,,,,,,,,,,,,,,,,,,,,,,,,,,,0.000000000,0.000000000,0.000000000,0.000000000,0.000000000,0.000000000,1.000000000,0.000000000,0.000000000,0.000000000,0.000000000,0.000000000,0.000000000,2.259349358,0.720990031,0.000000000,0.000000000,0.000000000,0.000000000,-0.952668848,-0.304009975,2.000000000,0.468175351,-1.467109990,0.000000000,0.000000000
1710832808.403804,0.000000000,0.000000000,0.000000000,0.000000000,0.000000000,0.000000000,-0.991591871,0.011270627,-0.122786470,0.039270002,0.000000000,0.000000000,0.000000000,2.229444683,0.733405352,-0.082362443,0.000000000,0.000000000,0.000000000,-0.954734564,-0.251454502,2.079588652,0.422768712,-1.557016850,-0.107992150,1710832808397222.000000000,,,,,,,,,,,,,,,,,,,,,,,,,,
1710832808.422413,,,,,,,,,,,,,,,,,,,,,,,,,,,0.000000000,0.000000000,0.000000000,0.000000000,0.000000000,0.000000000,1.000000000,0.000000000,0.000000000,0.000000000,0.000000000,0.000000000,0.000000000,2.236071897,0.790233266,0.000000000,0.000000000,0.000000000,0.000000000,-0.942853761,-0.333206820,2.000000000,0.513138491,-1.451994756,0.000000000,0.000000000
1710832808.423885,0.000000000,0.000000000,0.000000000,0.000000000,0.000000000,0.000000000,-0.991604209,0.014180025,-0.122572988,0.038678810,0.000000000,0.000000000,0.000000000,2.234235406,0.772118568,-0.023296103,0.000000000,0.000000000,0.000000000,-0.947159648,-0.275641948,2.079530478,0.458651364,-1.545094490,-0.108517863,1710832808413222.000000000,,,,,,,,,,,,,,,,,,,,,,,,,,
1710832808.442393,,,,,,,,,,,,,,,,,,,,,,,,,,,0.000000000,0.000000000,0.000000000,0.000000000,0.000000000,0.000000000,1.000000000,0.000000000,0.000000000,0.000000000,0.000000000,0.000000000,0.000000000,2.210676146,0.858718302,0.000000000,0.000000000,0.000000000,0.000000000,-0.932145483,-0.362083966,2.000000000,0.557609293,-1.435504008,0.000000000,0.000000000
1710832808.443848,0.000000000,0.000000000,0.000000000,0.000000000,0.000000000,0.000000000,-0.991618037,0.018511504,-0.122163795,0.037776809,0.000000000,0.000000000,0.000000000,2.194877714,0.872746110,-0.053562224,0.000000000,0.000000000,0.000000000,-0.934786320,-0.311610222,2.079418898,0.511521220,-1.525115967,-0.109431453,1710832808437310.000000000,,,,,,,,,,,,,,,,,,,,,,,,,,
1710832808.462418,,,,,,,,,,,,,,,,,,,,,,,,,,,0.000000000,0.000000000,0.000000000,0.000000000,0.000000000,0.000000000,1.000000000,0.000000000,0.000000000,0.000000000,0.000000000,0.000000000,0.000000000,2.183183444,0.926388794,0.000000000,0.000000000,0.000000000,0.000000000,-0.920553012,-0.390617654,2.000000000,0.601551172,-1.417651604,0.000000000,0.000000000
1710832808.463902,0.000000000,0.000000000,0.000000000,0.000000000,0.000000000,0.000000000,-0.991624057,0.021357244,-0.121834539,0.037174322,0.000000000,0.000000000,0.000000000,2.170130610,0.871822238,-0.059130602,0.000000000,0.000000000,0.000000000,-0.925872922,-0.335357875,2.079196692,0.546123564,-1.511297584,-0.110598050,1710832808453310.000000000,,,,,,,,,,,,,,,,,,,,,,,,,,
1710832808.482514,,,,,,,,,,,,,,,,,,,,,,,,,,,0.000000000,0.000000000,0.000000000,0.000000000,0.000000000,0.000000000,1.000000000,0.000000000,0.000000000,0.000000000,0.000000000,0.000000000,0.000000000,2.153619867,0.993180554,0.000000000,0.000000000,0.000000000,0.000000000,-0.908087345,-0.418780819,2.000000000,0.644922445,-1.398454476,0.000000000,0.000000000
1710832808.483946,0.000000000,0.000000000,0.000000000,0.000000000,0.000000000,0.000000000,-0.991633356,0.025641894,-0.121203773,0.036269132,0.000000000,0.000000000,0.000000000,2.155922353,1.009255648,-0.037844293,0.000000000,0.000000000,0.000000000,-0.911534131,-0.370609999,2.078739166,0.598309934,-1.488045931,-0.112087049,1710832808477310.000000000,,,,,,,,,,,,,,,,,,,,,,,,,,
1710832808.502434,,,,,,,,,,,,,,,,,,,,,,,,,,,0.000000000,0.000000000,0.000000000,0.000000000,0.000000000,0.000000000,1.000000000,0.000000000,0.000000000,0.000000000,0.000000000,0.000000000,0.000000000,2.122009421,1.059038321,0.000000000,0.000000000,0.000000000,0.000000000,-0.894758601,-0.446550160,2.000000000,0.687687229,-1.377928212,0.000000000,0.000000000
1710832808.503899,0.000000000,0.000000000,0.000000000,0.000000000,0.000000000,0.000000000,-0.991639614,0.028485201,-0.120697401,0.035659254,0.000000000,0.000000000,0.000000000,2.112239599,1.031279564,-0.038485974,0.000000000,0.000000000,0.000000000,-0.901313901,-0.393828809,2.078417540,0.632347405,-1.471723080,-0.112905413,1710832808493310.000000000,,,,,,,,,,,,,,,,,,,,,,,,,,
1710832808.522406,,,,,,,,,,,,,,,,,,,,,,,,,,,0.000000000,0.000000000,0.000000000,0.000000000,0.000000000,0.000000000,1.000000000,0.000000000,0.000000000,0.000000000,0.000000000,0.000000000,0.000000000,2.088389916,1.123883314,0.000000000,0.000000000,0.000000000,0.000000000,-0.880582726,-0.473892459,2.000000000,0.729794368,-1.356097365,0.000000000,0.000000000
1710832808.523855,0.000000000,0.000000000,0.000000000,0.000000000,0.000000000,0.000000000,-0.991654396,0.032767847,-0.119760968,0.034717388,0.000000000,0.000000000,0.000000000,2.102009952,1.092880964,0.007614493,0.000000000,0.000000000,0.000000000,-0.885009587,-0.428203076,2.077743292,0.682882607,-1.445763588,-0.113380976,1710832808517310.000000000,,,,,,,,,,,,,,,,,,,,,,,,,,
1710832808.542420,,,,,,,,,,,,,,,,,,,,,,,,,,,0.000000000,0.000000000,0.000000000,0.000000000,0.000000000,0.000000000,1.000000000,0.000000000,0.000000000,0.000000000,0.000000000,0.000000000,0.000000000,2.052789456,1.187662240,0.000000000,0.000000000,0.000000000,0.000000000,-0.865571568,-0.500785244,2.000000000,0.771209256,-1.332980182,0.000000000,0.000000000
1710832808.543896,0.000000000,0.000000000,0.000000000,0.000000000,0.000000000,0.000000000,-0.991662204,0.035564531,-0.119073682,0.034099363,0.000000000,0.000000000,0.000000000,2.063900232,1.171350479,0.020542182,0.000000000,0.000000000,0.000000000,-0.873502195,-0.450798839,2.077307224,0.716013432,-1.427643180,-0.113350578,1710832808533399.000000000,,,,,,,,,,,,,,,,,,,,,,,,,,
1710832808.562439,,,,,,,,,,,,,,,,,,,,,,,,,,,0.000000000,0.000000000,0.000000000,0.000000000,0.000000000,0.000000000,1.000000000,0.000000000,0.000000000,0.000000000,0.000000000,0.000000000,0.000000000,2.015241808,1.250314601,0.000000000,0.000000000,0.000000000,0.000000000,-0.849739367,-0.527203005,2.000000000,0.811892608,-1.308598592,0.000000000,0.000000000
1710832808.563905,0.000000000,0.000000000,0.000000000,0.000000000,0.000000000,0.000000000,-0.991678119,0.039742202,-0.117883570,0.033143405,0.000000000,0.000000000,0.000000000,2.035364509,1.207113266,-0.011887401,0.000000000,0.000000000,0.000000000,-0.855293214,-0.484174341,2.076670647,0.765364587,-1.399168611,-0.113557570,1710832808557399.000000000,,,,,,,,,,,,,,,,,,,,,,,,,,
1710832808.582545,,,,,,,,,,,,,,,,,,,,,,,,,,,0.000000000,0.000000000,0.000000000,0.000000000,0.000000000,0.000000000,1.000000000,0.000000000,0.000000000,0.000000000,0.000000000,0.000000000,0.000000000,1.975782588,1.311780968,0.000000000,0.000000000,0.000000000,0.000000000,-0.833101139,-0.553120685,2.000000000,0.851805834,-1.282975722,0.000000000,0.000000000
1710832808.583951,0.000000000,0.000000000,0.000000000,0.000000000,0.000000000,0.000000000,-0.991681576,0.042494372,-0.117068022,0.032513108,0.000000000,0.000000000,0.000000000,2.032227814,1.354902983,0.061850064,0.000000000,0.000000000,0.000000000,-0.842239916,-0.505530477,2.076920986,0.797662675,-1.378306866,-0.113146372,1710832808573399.000000000,,,,,,,,,,,,,,,,,,,,,,,,,,
1710832808.602488,,,,,,,,,,,,,,,,,,,,,,,,,,,0.000000000,0.000000000,0.000000000,0.000000000,0.000000000,0.000000000,1.000000000,0.000000000,0.000000000,0.000000000,0.000000000,0.000000000,0.000000000,1.934443994,1.372010416,0.000000000,0.000000000,0.000000000,0.000000000,-0.815670461,-0.578516810,2.000000000,0.890915865,-1.256132479,0.000000000,0.000000000
1710832808.603874,0.000000000,0.000000000,0.000000000,0.000000000,0.000000000,0.000000000,-0.991690278,0.046628144,-0.115683779,0.031519856,0.000000000,0.000000000,0.000000000,1.993864775,1.374214888,0.031866133,0.000000000,0.000000000,0.000000000,-0.821333110,-0.536242306,2.078348160,0.845856249,-1.345989943,-0.112513959,1710832808597399.000000000,,,,,,,,,,,,,,,,,,,,,,,,,,
1710832808.622417,,,,,,,,,,,,,,,,,,,,,,,,,,,0.000000000,0.000000000,0.000000000,0.000000000,0.000000000,0.000000000,1.000000000,0.000000000,0.000000000,0.000000000,0.000000000,0.000000000,0.000000000,1.891275473,1.430930897,0.000000000,0.000000000,0.000000000,0.000000000,-0.797468183,-0.603361001,2.000000000,0.929175918,-1.228100971,0.000000000,0.000000000
1710832808.623921,0.000000000,0.000000000,0.000000000,0.000000000,0.000000000,0.000000000,-0.991697192,0.049367934,-0.114658855,0.030868851,0.000000000,0.000000000,0.000000000,1.963697374,1.450017095,0.040389597,0.000000000,0.000000000,0.000000000,-0.806810856,-0.556346416,2.079283953,0.877432108,-1.322940588,-0.111608073,1710832808613399.000000000,,,,,,,,,,,,,,,,,,,,,,,,,,
1710832808.642447,,,,,,,,,,,,,,,,,,,,,,,,,,,0.000000000,0.000000000,0.000000000,0.000000000,0.000000000,0.000000000,1.000000000,0.000000000,0.000000000,0.000000000,0.000000000,0.000000000,0.000000000,1.846312970,1.488494058,0.000000000,0.000000000,0.000000000,0.000000000,-0.778509461,-0.627632869,2.000000000,0.966554595,-1.198904541,0.000000000,0.000000000
1710832808.643889,0.000000000,0.000000000,0.000000000,0.000000000,0.000000000,0.000000000,-0.991708457,0.053517561,-0.112943403,0.029900277,0.000000000,0.000000000,0.000000000,1.934982836,1.498609781,0.040329061,0.000000000,0.000000000,0.000000000,-0.784160554,-0.585928977,2.080420732,0.924028397,-1.287916899,-0.110331886,1710832808637488.000000000,,,,,,,,,,,,,,,,,,,,,,,,,,
1710832808.662418,,,,,,,,,,,,,,,,,,,,,,,,,,,0.000000000,0.000000000,0.000000000,0.000000000,0.000000000,0.000000000,1.000000000,0.000000000,0.000000000,0.000000000,0.000000000,0.000000000,0.000000000,1.799599135,1.544645299,0.000000000,0.000000000,0.000000000,0.000000000,-0.758812279,-0.651309393,2.000000000,1.003016440,-1.168570881,0.000000000,0.000000000
1710832808.663869,0.000000000,0.000000000,0.000000000,0.000000000,0.000000000,0.000000000,-0.991713166,0.056238603,-0.111741282,0.029261261,0.000000000,0.000000000,0.000000000,1.871183515,1.584097743,0.003986992,0.000000000,0.000000000,0.000000000,-0.768491268,-0.605244040,2.081072092,0.954136670,-1.263013482,-0.110030890,1710832808653488.000000000,,,,,,,,,,,,,,,,,,,,,,,,,,
1710832808.682443,,,,,,,,,,,,,,,,,,,,,,,,,,,0.000000000,0.000000000,0.000000000,0.000000000,0.000000000,0.000000000,1.000000000,0.000000000,0.000000000,0.000000000,0.000000000,0.000000000,0.000000000,1.751172177,1.599338036,0.000000000,0.000000000,0.000000000,0.000000000,-0.738392748,-0.674370929,2.000000000,1.038531205,-1.137124804,0.000000000,0.000000000
1710832808.683915,0.000000000,0.000000000,0.000000000,0.000000000,0.000000000,0.000000000,-0.991719246,0.060289245,-0.109803930,0.028308939,0.000000000,0.000000000,0.000000000,1.821532845,1.633614302,0.016058795,0.000000000,0.000000000,0.000000000,-0.744164228,-0.633557856,2.081886768,0.998302758,-1.224282265,-0.109497525,1710832808677488.000000000,,,,,,,,,,,,,,,,,,,,,,,,,,
1710832808.702430,,,,,,,,,,,,,,,,,,,,,,,,,,,0.000000000,0.000000000,0.000000000,0.000000000,0.000000000,0.000000000,1.000000000,0.000000000,0.000000000,0.000000000,0.000000000,0.000000000,0.000000000,1.701090025,1.652506845,0.000000000,0.000000000,0.000000000,0.000000000,-0.717275294,-0.696789891,2.000000000,1.073056406,-1.104603925,0.000000000,0.000000000
1710832808.703951,0.000000000,0.000000000,0.000000000,0.000000000,0.000000000,0.000000000,-0.991725504,0.062933765,-0.108418696,0.027664240,0.000000000,0.000000000,0.000000000,1.780226827,1.666739583,-0.021437183,0.000000000,0.000000000,0.000000000,-0.727412283,-0.651980102,2.082266331,1.026900053,-1.197963119,-0.109603494,1710832808693488.000000000,,,,,,,,,,,,,,,,,,,,,,,,,,
1710832808.722419,,,,,,,,,,,,,,,,,,,,,,,,,,,0.000000000,0.000000000,0.000000000,0.000000000,0.000000000,0.000000000,1.000000000,0.000000000,0.000000000,0.000000000,0.000000000,0.000000000,0.000000000,1.649394292,1.704108158,0.000000000,0.000000000,0.000000000,0.000000000,-0.695477464,-0.718547909,2.000000000,1.106563752,-1.071035268,0.000000000,0.000000000
1710832808.723927,0.000000000,0.000000000,0.000000000,0.000000000,0.000000000,0.000000000,-0.991741776,0.066792369,-0.106172010,0.026734024,0.000000000,0.000000000,0.000000000,1.682907343,1.741349697,-0.010778196,0.000000000,0.000000000,0.000000000,-0.701496482,-0.678899705,2.082662821,1.068257213,-1.156915069,-0.110290982,1710832808717488.000000000,,,,,,,,,,,,,,,,,,,,,,,,,,
1710832808.742512,,,,,,,,,,,,,,,,,,,,,,,,,,,0.000000000,0.000000000,0.000000000,0.000000000,0.000000000,0.000000000,1.000000000,0.000000000,0.000000000,0.000000000,0.000000000,0.000000000,0.000000000,1.596134016,1.754093028,0.000000000,0.000000000,0.000000000,0.000000000,-0.673019934,-0.739624343,2.000000000,1.139021460,-1.036450672,0.000000000,0.000000000
1710832808.743865,0.000000000,0.000000000,0.000000000,0.000000000,0.000000000,0.000000000,-0.991753399,0.069280140,-0.104608618,0.026124137,0.000000000,0.000000000,0.000000000,1.673355699,1.781284809,-0.057238154,0.000000000,0.000000000,0.000000000,-0.683713138,-0.696347892,2.082866430,1.094933271,-1.128556728,-0.110976145,1710832808733577.000000000,,,,,,,,,,,,,,,,,,,,,,,,,,
1710832808.762433,,,,,,,,,,,,,,,,,,,,,,,,,,,0.000000000,0.000000000,0.000000000,0.000000000,0.000000000,0.000000000,1.000000000,0.000000000,0.000000000,0.000000000,0.000000000,0.000000000,0.000000000,1.541359715,1.802414041,0.000000000,0.000000000,0.000000000,0.000000000,-0.649924006,-0.759999202,2.000000000,1.170398742,-1.000882944,0.000000000,0.000000000
1710832808.763894,0.000000000,0.000000000,0.000000000,0.000000000,0.000000000,0.000000000,-0.991773665,0.072919428,-0.102124713,0.025264746,0.000000000,0.000000000,0.000000000,1.609951258,1.806572080,-0.014208257,0.000000000,0.000000000,0.000000000,-0.656311810,-0.721750915,2.082920790,1.133898377,-1.085643768,-0.112271480,1710832808757577.000000000,,,,,,,,,,,,,,,,,,,,,,,,,,
1710832808.782418,,,,,,,,,,,,,,,,,,,,,,,,,,,0.000000000,0.000000000,0.000000000,0.000000000,0.000000000,0.000000000,1.000000000,0.000000000,0.000000000,0.000000000,0.000000000,0.000000000,0.000000000,1.485116295,1.849031027,0.000000000,0.000000000,0.000000000,0.000000000,-0.626208614,-0.779655547,2.000000000,1.200669512,-0.964361242,0.000000000,0.000000000
1710832808.783939,0.000000000,0.000000000,0.000000000,0.000000000,0.000000000,0.000000000,-0.991784453,0.075284034,-0.100426197,0.024711801,0.000000000,0.000000000,0.000000000,1.574724913,1.868143678,-0.039213337,0.000000000,0.000000000,0.000000000,-0.637566805,-0.738158941,2.082908392,1.159173369,-1.056061625,-0.112791628,1710832808773577.000000000,,,,,,,,,,,,,,,,,,,,,,,,,,
1710832808.802564,,,,,,,,,,,,,,,,,,,,,,,,,,,0.000000000,0.000000000,0.000000000,0.000000000,0.000000000,0.000000000,1.000000000,0.000000000,0.000000000,0.000000000,0.000000000,0.000000000,0.000000000,1.427471032,1.893888222,0.000000000,0.000000000,0.000000000,0.000000000,-0.601902127,-0.798569865,2.000000000,1.229797562,-0.926929253,0.000000000,0.000000000
1710832808.804048,0.000000000,0.000000000,0.000000000,0.000000000,0.000000000,0.000000000,-0.991804957,0.078691579,-0.097773828,0.023894574,0.000000000,0.000000000,0.000000000,1.482248306,1.909956336,-0.040651299,0.000000000,0.000000000,0.000000000,-0.608752608,-0.761941791,2.082811832,1.195369959,-1.010387659,-0.113726273,1710832808797577.000000000,,,,,,,,,,,,,,,,,,,,,,,,,,
1710832808.822459,,,,,,,,,,,,,,,,,,,,,,,,,,,0.000000000,0.000000000,0.000000000,0.000000000,0.000000000,0.000000000,1.000000000,0.000000000,0.000000000,0.000000000,0.000000000,0.000000000,0.000000000,1.368471733,1.936948957,0.000000000,0.000000000,0.000000000,0.000000000,-0.577024702,-0.816726694,2.000000000,1.257759078,-0.888618019,0.000000000,0.000000000
1710832808.823892,0.000000000,0.000000000,0.000000000,0.000000000,0.000000000,0.000000000,-0.991817892,0.080893248,-0.095951982,0.023385828,0.000000000,0.000000000,0.000000000,1.425385475,1.935534179,-0.047245063,0.000000000,0.000000000,0.000000000,-0.589096189,-0.777229965,2.082600355,1.218463302,-0.979404509,-0.114444129,1710832808813577.000000000,,,,,,,,,,,,,,,,,,,,,,,,,,
1710832808.842420,,,,,,,,,,,,,,,,,,,,,,,,,,,0.000000000,0.000000000,0.000000000,0.000000000,0.000000000,0.000000000,1.000000000,0.000000000,0.000000000,0.000000000,0.000000000,0.000000000,0.000000000,1.308174360,1.978172386,0.000000000,0.000000000,0.000000000,0.000000000,-0.551599936,-0.834108812,2.000000000,1.284527539,-0.849463881,0.000000000,0.000000000
1710832808.843949,0.000000000,0.000000000,0.000000000,0.000000000,0.000000000,0.000000000,-0.991844177,0.084115237,-0.093044616,0.022638528,0.000000000,0.000000000,0.000000000,1.376926899,1.983731985,-0.020943582,0.000000000,0.000000000,0.000000000,-0.558982551,-0.799290776,2.082146645,1.251939416,-0.931839764,-0.115507469,1710832808837665.000000000,,,,,,,,,,,,,,,,,,,,,,,,,,
1710832808.862463,,,,,,,,,,,,,,,,,,,,,,,,,,,0.000000000,0.000000000,0.000000000,0.000000000,0.000000000,0.000000000,1.000000000,0.000000000,0.000000000,0.000000000,0.000000000,0.000000000,0.000000000,1.246628414,2.017524162,0.000000000,0.000000000,0.000000000,0.000000000,-0.525648701,-0.850701736,2.000000000,1.310080640,-0.809498980,0.000000000,0.000000000
1710832808.863910,0.000000000,0.000000000,0.000000000,0.000000000,0.000000000,0.000000000,-0.991865098,0.086194724,-0.091019854,0.022128487,0.000000000,0.000000000,0.000000000,1.327127218,2.014286816,-0.039630570,0.000000000,0.000000000,0.000000000,-0.538492680,-0.813405037,2.081806421,1.273285270,-0.899897039,-0.116352990,1710832808853665.000000000,,,,,,,,,,,,,,,,,,,,,,,,,,
1710832808.882470,,,,,,,,,,,,,,,,,,,,,,,,,,,0.000000000,0.000000000,0.000000000,0.000000000,0.000000000,0.000000000,1.000000000,0.000000000,0.000000000,0.000000000,0.000000000,0.000000000,0.000000000,1.183907516,2.054957211,0.000000000,0.000000000,0.000000000,0.000000000,-0.499202041,-0.866485616,2.000000000,1.334387816,-0.768771123,0.000000000,0.000000000
1710832808.883880,0.000000000,0.000000000,0.000000000,0.000000000,0.000000000,0.000000000,-0.991900861,0.089201458,-0.087853871,0.021387547,0.000000000,0.000000000,0.000000000,1.258984208,2.063125372,-0.043375418,0.000000000,0.000000000,0.000000000,-0.507157385,-0.833668470,2.081093788,1.304419398,-0.851086736,-0.117506668,1710832808877665.000000000,,,,,,,,,,,,,,,,,,,,,,,,,,
1710832808.902407,,,,,,,,,,,,,,,,,,,,,,,,,,,0.000000000,0.000000000,0.000000000,0.000000000,0.000000000,0.000000000,1.000000000,0.000000000,0.000000000,0.000000000,0.000000000,0.000000000,0.000000000,1.120063614,2.090441017,0.000000000,0.000000000,0.000000000,0.000000000,-0.472281858,-0.881447586,2.000000000,1.357429248,-0.727314044,0.000000000,0.000000000
1710832808.903863,0.000000000,0.000000000,0.000000000,0.000000000,0.000000000,0.000000000,-0.991918802,0.091154248,-0.085732304,0.020932112,0.000000000,0.000000000,0.000000000,1.208856702,2.082444727,-0.038074329,0.000000000,0.000000000,0.000000000,-0.485894024,-0.846555710,2.080599546,1.323831320,-0.817875922,-0.118048958,1710832808893665.000000000,,,,,,,,,,,,,,,,,,,,,,,,,,
1710832808.922371,,,,,,,,,,,,,,,,,,,,,,,,,,,0.000000000,0.000000000,0.000000000,0.000000000,0.000000000,0.000000000,1.000000000,0.000000000,0.000000000,0.000000000,0.000000000,0.000000000,0.000000000,1.055157269,2.123941921,0.000000000,0.000000000,0.000000000,0.000000000,-0.444913690,-0.895573452,2.000000000,1.379183082,-0.685167066,0.000000000,0.000000000
1710832808.923841,0.000000000,0.000000000,0.000000000,0.000000000,0.000000000,0.000000000,-0.991947770,0.093986593,-0.082436986,0.020255150,0.000000000,0.000000000,0.000000000,1.123741269,2.124935389,-0.037361868,0.000000000,0.000000000,0.000000000,-0.453468442,-0.864929736,2.079825163,1.351648450,-0.767120361,-0.118962198,1710832808917665.000000000,,,,,,,,,,,,,,,,,,,,,,,,,,
1710832808.942399,,,,,,,,,,,,,,,,,,,,,,,,,,,0.000000000,0.000000000,0.000000000,0.000000000,0.000000000,0.000000000,1.000000000,0.000000000,0.000000000,0.000000000,0.000000000,0.000000000,0.000000000,0.989250047,2.155428145,0.000000000,0.000000000,0.000000000,0.000000000,-0.417123496,-0.908849817,2.000000000,1.399628683,-0.642370168,0.000000000,0.000000000
1710832808.943908,0.000000000,0.000000000,0.000000000,0.000000000,0.000000000,0.000000000,-0.991965473,0.095818736,-0.080182210,0.019855484,0.000000000,0.000000000,0.000000000,1.081183553,2.131238580,-0.005158596,0.000000000,0.000000000,0.000000000,-0.431507379,-0.876529038,2.079190493,1.369214416,-0.732675791,-0.118981279,1710832808933754.000000000,,,,,,,,,,,,,,,,,,,,,,,,,,
1710832808.962458,,,,,,,,,,,,,,,,,,,,,,,,,,,0.000000000,0.000000000,0.000000000,0.000000000,0.000000000,0.000000000,1.000000000,0.000000000,0.000000000,0.000000000,0.000000000,0.000000000,0.000000000,0.922396131,2.184873343,0.000000000,0.000000000,0.000000000,0.000000000,-0.388934122,-0.921265569,2.000000000,1.418748941,-0.598958534,0.000000000,0.000000000
1710832808.963953,0.000000000,0.000000000,0.000000000,0.000000000,0.000000000,0.000000000,-0.991993964,0.098478906,-0.076676629,0.019251181,0.000000000,0.000000000,0.000000000,0.979930162,2.194575965,0.023850240,0.000000000,0.000000000,0.000000000,-0.398085445,-0.892937660,2.078222752,1.393536687,-0.680218577,-0.118991934,1710832808957754.000000000,,,,,,,,,,,,,,,,,,,,,,,,,,
1710832808.982487,,,,,,,,,,,,,,,,,,,,,,,,,,,0.000000000,0.000000000,0.000000000,0.000000000,0.000000000,0.000000000,1.000000000,0.000000000,0.000000000,0.000000000,0.000000000,0.000000000,0.000000000,0.854675492,2.212242290,0.000000000,0.000000000,0.000000000,0.000000000,-0.360379290,-0.932805857,2.000000000,1.436520985,-0.554984092,0.000000000,0.000000000
1710832808.983956,0.000000000,0.000000000,0.000000000,0.000000000,0.000000000,0.000000000,-0.992011130,0.100227110,-0.074247397,0.018862378,0.000000000,0.000000000,0.000000000,0.980570912,2.227775753,0.023722649,0.000000000,0.000000000,0.000000000,-0.374890566,-0.902892113,2.078429699,1.409312367,-0.644947171,-0.118793756,1710832808973754.000000000,,,,,,,,,,,,,,,,,,,,,,,,,,
1710832809.002305,,,,,,,,,,,,,,,,,,,,,,,,,,,0.000000000,0.000000000,0.000000000,0.000000000,0.000000000,0.000000000,1.000000000,0.000000000,0.000000000,0.000000000,0.000000000,0.000000000,0.000000000,0.786144144,2.237512800,0.000000000,0.000000000,0.000000000,0.000000000,-0.331482616,-0.943461327,2.000000000,1.452930407,-0.510483217,0.000000000,0.000000000
1710832809.003820,0.000000000,0.000000000,0.000000000,0.000000000,0.000000000,0.000000000,-0.992034256,0.102777593,-0.070512876,0.018241227,0.000000000,0.000000000,0.000000000,0.891879201,2.292990685,0.019771978,0.000000000,0.000000000,0.000000000,-0.338816494,-0.916357815,2.079623938,1.431425095,-0.590080559,-0.117967755,1710832808997754.000000000,,,,,,,,,,,,,,,,,,,,,,,,,,
1710832809.022412,,,,,,,,,,,,,,,,,,,,,,,,,,,0.000000000,0.000000000,0.000000000,0.000000000,0.000000000,0.000000000,1.000000000,0.000000000,0.000000000,0.000000000,0.000000000,0.000000000,0.000000000,0.716867095,2.260660902,0.000000000,0.000000000,0.000000000,0.000000000,-0.302271513,-0.953221869,2.000000000,1.467961642,-0.465498119,0.000000000,0.000000000
1710832809.023908,0.000000000,0.000000000,0.000000000,0.000000000,0.000000000,0.000000000,-0.992046773,0.104425937,-0.067971900,0.017841442,0.000000000,0.000000000,0.000000000,0.815972686,2.275675535,0.056228600,0.000000000,0.000000000,0.000000000,-0.314566344,-0.924663484,2.080339670,1.444903731,-0.553628743,-0.117126621,1710832809013754.000000000,,,,,,,,,,,,,,,,,,,,,,,,,,
1710832809.042477,,,,,,,,,,,,,,,,,,,,,,,,,,,0.000000000,0.000000000,0.000000000,0.000000000,0.000000000,0.000000000,1.000000000,0.000000000,0.000000000,0.000000000,0.000000000,0.000000000,0.000000000,0.646901352,2.281667107,0.000000000,0.000000000,0.000000000,0.000000000,-0.272770018,-0.962079268,2.000000000,1.481602035,-0.420065818,0.000000000,0.000000000
1710832809.043921,0.000000000,0.000000000,0.000000000,0.000000000,0.000000000,0.000000000,-0.992065251,0.106764689,-0.064108752,0.017265186,0.000000000,0.000000000,0.000000000,0.732451677,2.327155322,0.051717274,0.000000000,0.000000000,0.000000000,-0.277925253,-0.936111033,2.081304789,1.463543057,-0.498189777,-0.115860790,1710832809037843.000000000,,,,,,,,,,,,,,,,,,,,,,,,,,
1710832809.062440,,,,,,,,,,,,,,,,,,,,,,,,,,,0.000000000,0.000000000,0.000000000,0.000000000,0.000000000,0.000000000,1.000000000,0.000000000,0.000000000,0.000000000,0.000000000,0.000000000,0.000000000,0.576330610,2.300506286,0.000000000,0.000000000,0.000000000,0.000000000,-0.243013422,-0.970022926,2.000000000,1.493835269,-0.374240661,0.000000000,0.000000000
1710832809.063899,0.000000000,0.000000000,0.000000000,0.000000000,0.000000000,0.000000000,-0.992075324,0.108263604,-0.061481968,0.016898708,0.000000000,0.000000000,0.000000000,0.712648034,2.331417054,0.022483058,0.000000000,0.000000000,0.000000000,-0.253341675,-0.943059921,2.081781626,1.475005269,-0.460936368,-0.115285687,1710832809053843.000000000,,,,,,,,,,,,,,,,,,,,,,,,,,
1710832809.082735,,,,,,,,,,,,,,,,,,,,,,,,,,,0.000000000,0.000000000,0.000000000,0.000000000,0.000000000,0.000000000,1.000000000,0.000000000,0.000000000,0.000000000,0.000000000,0.000000000,0.000000000,0.505213187,2.317163305,0.000000000,0.000000000,0.000000000,0.000000000,-0.213026314,-0.977046462,2.000000000,1.504651515,-0.328060515,0.000000000,0.000000000
1710832809.083918,0.000000000,0.000000000,0.000000000,0.000000000,0.000000000,0.000000000,-0.992091954,0.110368609,-0.057474244,0.016406268,0.000000000,0.000000000,0.000000000,0.590920448,2.340182662,0.006794930,0.000000000,0.000000000,0.000000000,-0.216244504,-0.952431381,2.082360983,1.490063667,-0.404593557,-0.115134239,1710832809077843.000000000,,,,,,,,,,,,,,,,,,,,,,,,,,
1710832809.102356,,,,,,,,,,,,,,,,,,,,,,,,,,,0.000000000,0.000000000,0.000000000,0.000000000,0.000000000,0.000000000,1.000000000,0.000000000,0.000000000,0.000000000,0.000000000,0.000000000,0.000000000,0.433616540,2.331622363,0.000000000,0.000000000,0.000000000,0.000000000,-0.182837138,-0.983143215,2.000000000,1.514040514,-0.281569185,0.000000000,0.000000000
1710832809.103977,0.000000000,0.000000000,0.000000000,0.000000000,0.000000000,0.000000000,-0.992102206,0.111728027,-0.054692402,0.016092204,0.000000000,0.000000000,0.000000000,0.553861260,2.363059670,0.006897375,0.000000000,0.000000000,0.000000000,-0.191386342,-0.957972705,2.082726717,1.499075532,-0.366874903,-0.115096249,1710832809093843.000000000,,,,,,,,,,,,,,,,,,,,,,,,,,
1710832809.122614,,,,,,,,,,,,,,,,,,,,,,,,,,,0.000000000,0.000000000,0.000000000,0.000000000,0.000000000,0.000000000,1.000000000,0.000000000,0.000000000,0.000000000,0.000000000,0.000000000,0.000000000,0.361608582,2.343869744,0.000000000,0.000000000,0.000000000,0.000000000,-0.152474530,-0.988307400,2.000000000,1.521993359,-0.234810771,0.000000000,0.000000000
1710832809.123884,0.000000000,0.000000000,0.000000000,0.000000000,0.000000000,0.000000000,-0.992124379,0.113600895,-0.050380759,0.015682951,0.000000000,0.000000000,0.000000000,0.424519181,2.382799983,0.000144355,0.000000000,0.000000000,0.000000000,-0.153960958,-0.965219140,2.083026409,1.509861708,-0.310118377,-0.115434565,1710832809117843.000000000,,,,,,,,,,,,,,,,,,,,,,,,,,
1710832809.142488,,,,,,,,,,,,,,,,,,,,,,,,,,,0.000000000,0.000000000,0.000000000,0.000000000,0.000000000,0.000000000,1.000000000,0.000000000,0.000000000,0.000000000,0.000000000,0.000000000,0.000000000,0.289248640,2.353894936,0.000000000,0.000000000,0.000000000,0.000000000,-0.121963506,-0.992534585,2.000000000,1.528503224,-0.187823794,0.000000000,0.000000000
1710832809.143891,0.000000000,0.000000000,0.000000000,0.000000000,0.000000000,0.000000000,-0.992133856,0.114810102,-0.047441587,0.015435430,0.000000000,0.000000000,0.000000000,0.402569771,2.390973270,-0.024585053,0.000000000,0.000000000,0.000000000,-0.128936678,-0.969329774,2.083181620,1.516279101,-0.271906167,-0.115701467,1710832809133931.000000000,,,,,,,,,,,,,,,,,,,,,,,,,,
1710832809.162259,,,,,,,,,,,,,,,,,,,,,,,,,,,0.000000000,0.000000000,0.000000000,0.000000000,0.000000000,0.000000000,1.000000000,0.000000000,0.000000000,0.000000000,0.000000000,0.000000000,0.000000000,0.216623269,2.361685945,0.000000000,0.000000000,0.000000000,0.000000000,-0.091340562,-0.995819713,2.000000000,1.533562321,-0.140664462,0.000000000,0.000000000
1710832809.163792,0.000000000,0.000000000,0.000000000,0.000000000,0.000000000,0.000000000,-0.992149770,0.116478324,-0.042938266,0.015098335,0.000000000,0.000000000,0.000000000,0.267237425,2.387451008,0.006238930,0.000000000,0.000000000,0.000000000,-0.091301985,-0.974407196,2.083340168,1.524011612,-0.214673638,-0.115999468,1710832809157931.000000000,,,,,,,,,,,,,,,,,,,,,,,,,,
1710832809.182697,,,,,,,,,,,,,,,,,,,,,,,,,,,0.000000000,0.000000000,0.000000000,0.000000000,0.000000000,0.000000000,1.000000000,0.000000000,0.000000000,0.000000000,0.000000000,0.000000000,0.000000000,0.143792420,2.367236762,0.000000000,0.000000000,0.000000000,0.000000000,-0.060630977,-0.998160250,2.000000000,1.537166747,-0.093371702,0.000000000,0.000000000
1710832809.183925,0.000000000,0.000000000,0.000000000,0.000000000,0.000000000,0.000000000,-0.992161930,0.117483035,-0.039876796,0.014910357,0.000000000,0.000000000,0.000000000,0.208690763,2.376623452,-0.050185248,0.000000000,0.000000000,0.000000000,-0.066174299,-0.977067471,2.083291054,1.527719259,-0.176708430,-0.116684847,1710832809173931.000000000,,,,,,,,,,,,,,,,,,,,,,,,,,
1710832809.202588,,,,,,,,,,,,,,,,,,,,,,,,,,,0.000000000,0.000000000,0.000000000,0.000000000,0.000000000,0.000000000,1.000000000,0.000000000,0.000000000,0.000000000,0.000000000,0.000000000,0.000000000,0.070825175,2.370542119,0.000000000,0.000000000,0.000000000,0.000000000,-0.029863880,-0.999553975,2.000000000,1.539313083,-0.045990374,0.000000000,0.000000000
1710832809.203955,0.000000000,0.000000000,0.000000000,0.000000000,0.000000000,0.000000000,-0.992180526,0.118827991,-0.035252415,0.014663722,0.000000000,0.000000000,0.000000000,0.144600868,2.395149320,-0.050561503,0.000000000,0.000000000,0.000000000,-0.028481457,-0.979957700,2.083062410,1.531644702,-0.119254723,-0.117374130,1710832809197931.000000000,,,,,,,,,,,,,,,,,,,,,,,,,,
1710832809.222444,,,,,,,,,,,,,,,,,,,,,,,,,,,0.000000000,0.000000000,0.000000000,0.000000000,0.000000000,0.000000000,1.000000000,0.000000000,0.000000000,0.000000000,0.000000000,0.000000000,0.000000000,-0.002218299,2.371598875,0.000000000,0.000000000,0.000000000,0.000000000,0.000935360,-0.999999563,2.000000000,1.539999288,0.001440454,0.000000000,0.000000000
1710832809.223883,0.000000000,0.000000000,0.000000000,0.000000000,0.000000000,0.000000000,-0.992193699,0.119627580,-0.032098543,0.014511572,0.000000000,0.000000000,0.000000000,0.063583255,2.399861813,-0.068210065,0.000000000,0.000000000,0.000000000,-0.003354275,-0.981148124,2.082850456,1.533054948,-0.080657944,-0.118402839,1710832809213931.000000000,,,,,,,,,,,,,,,,,,,,,,,,,,
1710832809.242475,,,,,,,,,,,,,,,,,,,,,,,,,,,0.000000000,0.000000000,0.000000000,0.000000000,0.000000000,0.000000000,1.000000000,0.000000000,0.000000000,0.000000000,0.000000000,0.000000000,0.000000000,-0.075250626,2.370405765,0.000000000,0.000000000,0.000000000,0.000000000,0.031729899,-0.999496480,2.000000000,1.539224541,0.048864043,0.000000000,0.000000000
1710832809.243884,0.000000000,0.000000000,0.000000000,0.000000000,0.000000000,0.000000000,-0.992214262,0.120663255,-0.027290462,0.014370713,0.000000000,0.000000000,0.000000000,-0.068634748,2.374847885,-0.034090132,0.000000000,0.000000000,0.000000000,0.034295570,-0.981827021,2.082306623,1.532978177,-0.023268707,-0.119651295,1710832809238020.000000000,,,,,,,,,,,,,,,,,,,,,,,,,,
1710832809.262549,,,,,,,,,,,,,,,,,,,,,,,,,,,0.000000000,0.000000000,0.000000000,0.000000000,0.000000000,0.000000000,1.000000000,0.000000000,0.000000000,0.000000000,0.000000000,0.000000000,0.000000000,-0.148211573,2.366964190,0.000000000,0.000000000,0.000000000,0.000000000,0.062494341,-0.998045318,2.000000000,1.536989752,0.096241282,0.000000000,0.000000000
1710832809.264029,0.000000000,0.000000000,0.000000000,0.000000000,0.000000000,0.000000000,-0.992219746,0.121314295,-0.024053574,0.014290513,0.000000000,0.000000000,0.000000000,-0.055357814,2.392981201,-0.038421713,0.000000000,0.000000000,0.000000000,0.059339564,-0.981546938,2.081911564,1.532088161,0.014923966,-0.120200530,1710832809254020.000000000,,,,,,,,,,,,,,,,,,,,,,,,,,
1710832809.282775,,,,,,,,,,,,,,,,,,,,,,,,,,,0.000000000,0.000000000,0.000000000,0.000000000,0.000000000,0.000000000,1.000000000,0.000000000,0.000000000,0.000000000,0.000000000,0.000000000,0.000000000,-0.221031933,2.361277415,0.000000000,0.000000000,0.000000000,0.000000000,0.093199503,-0.995647454,2.000000000,1.533297041,0.143527231,0.000000000,0.000000000
1710832809.284086,0.000000000,0.000000000,0.000000000,0.000000000,0.000000000,0.000000000,-0.992221117,0.122173376,-0.019218285,0.014201323,0.000000000,0.000000000,0.000000000,-0.189468265,2.412852831,-0.005017035,0.000000000,0.000000000,0.000000000,0.096790381,-0.980023265,2.081273079,1.528052688,0.072280258,-0.120529629,1710832809278020.000000000,,,,,,,,,,,,,,,,,,,,,,,,,,
1710832809.302531,,,,,,,,,,,,,,,,,,,,,,,,,,,0.000000000,0.000000000,0.000000000,0.000000000,0.000000000,0.000000000,1.000000000,0.000000000,0.000000000,0.000000000,0.000000000,0.000000000,0.000000000,-0.293642631,2.353350835,0.000000000,0.000000000,0.000000000,0.000000000,0.123816260,-0.992305162,2.000000000,1.528149911,0.190677036,0.000000000,0.000000000
1710832809.303940,0.000000000,0.000000000,0.000000000,0.000000000,0.000000000,0.000000000,-0.992215157,0.122691043,-0.015967483,0.014176200,0.000000000,0.000000000,0.000000000,-0.263482332,2.369761467,-0.019490719,0.000000000,0.000000000,0.000000000,0.121662207,-0.978266060,2.080722809,1.524437785,0.110540792,-0.120813780,1710832809294020.000000000,,,,,,,,,,,,,,,,,,,,,,,,,,
1710832809.322489,,,,,,,,,,,,,,,,,,,,,,,,,,,0.000000000,0.000000000,0.000000000,0.000000000,0.000000000,0.000000000,1.000000000,0.000000000,0.000000000,0.000000000,0.000000000,0.000000000,0.000000000,-0.365983732,2.343190571,0.000000000,0.000000000,0.000000000,0.000000000,0.154319339,-0.988021023,2.000000000,1.521552337,0.237651777,0.000000000,0.000000000
1710832809.323939,0.000000000,0.000000000,0.000000000,0.000000000,0.000000000,0.000000000,-0.992210507,0.123263851,-0.011099458,0.014179088,0.000000000,0.000000000,0.000000000,-0.353097916,2.374617383,0.006365590,0.000000000,0.000000000,0.000000000,0.158779740,-0.974518359,2.079830170,1.516363263,0.168049052,-0.120874412,1710832809318020.000000000,,,,,,,,,,,,,,,,,,,,,,,,,,
1710832809.342495,,,,,,,,,,,,,,,,,,,,,,,,,,,0.000000000,0.000000000,0.000000000,0.000000000,0.000000000,0.000000000,1.000000000,0.000000000,0.000000000,0.000000000,0.000000000,0.000000000,0.000000000,-0.437968699,2.330808779,0.000000000,0.000000000,0.000000000,0.000000000,0.184672253,-0.982800162,2.000000000,1.513512212,0.284395262,0.000000000,0.000000000
1710832809.343933,0.000000000,0.000000000,0.000000000,0.000000000,0.000000000,0.000000000,-0.992203414,0.123563707,-0.007878196,0.014223687,0.000000000,0.000000000,0.000000000,-0.385284424,2.401459962,0.005218200,0.000000000,0.000000000,0.000000000,0.183378071,-0.971275210,2.079263449,1.510408640,0.206551194,-0.120728873,1710832809334109.000000000,,,,,,,,,,,,,,,,,,,,,,,,,,
1710832809.362480,,,,,,,,,,,,,,,,,,,,,,,,,,,0.000000000,0.000000000,0.000000000,0.000000000,0.000000000,0.000000000,1.000000000,0.000000000,0.000000000,0.000000000,0.000000000,0.000000000,0.000000000,-0.509538227,2.316216082,0.000000000,0.000000000,0.000000000,0.000000000,0.214849994,-0.976647060,2.000000000,1.504036435,0.330868983,0.000000000,0.000000000
1710832809.363910,0.000000000,0.000000000,0.000000000,0.000000000,0.000000000,0.000000000,-0.992194116,0.123842090,-0.003046014,0.014305689,0.000000000,0.000000000,0.000000000,-0.495702028,2.380846068,0.004470348,0.000000000,0.000000000,0.000000000,0.220032066,-0.965296686,2.078250408,1.499344587,0.263621360,-0.120568290,1710832809358109.000000000,,,,,,,,,,,,,,,,,,,,,,,,,,
1710832809.382452,,,,,,,,,,,,,,,,,,,,,,,,,,,0.000000000,0.000000000,0.000000000,0.000000000,0.000000000,0.000000000,1.000000000,0.000000000,0.000000000,0.000000000,0.000000000,0.000000000,0.000000000,-0.580624430,2.299426323,0.000000000,0.000000000,0.000000000,0.000000000,0.244823938,-0.969567553,2.000000000,1.493133994,0.377028855,0.000000000,0.000000000
1710832809.383954,0.000000000,0.000000000,0.000000000,0.000000000,0.000000000,0.000000000,-0.992180705,0.123979799,0.000163420,0.014372491,0.000000000,0.000000000,0.000000000,-0.516995788,2.443086356,0.035521574,0.000000000,0.000000000,0.000000000,0.244893968,-0.960106194,2.078096867,1.490982056,0.302320331,-0.120186493,1710832809374109.000000000,,,,,,,,,,,,,,,,,,,,,,,,,,
1710832809.402494,,,,,,,,,,,,,,,,,,,,,,,,,,,0.000000000,0.000000000,0.000000000,0.000000000,0.000000000,0.000000000,1.000000000,0.000000000,0.000000000,0.000000000,0.000000000,0.000000000,0.000000000,-0.651159878,2.280455428,0.000000000,0.000000000,0.000000000,0.000000000,0.274565653,-0.961568356,2.000000000,1.480815231,0.422831095,0.000000000,0.000000000
1710832809.403888,0.000000000,0.000000000,0.000000000,0.000000000,0.000000000,0.000000000,-0.992158294,0.124052681,0.004867700,0.014462937,0.000000000,0.000000000,0.000000000,-0.593557954,2.357449383,0.045393594,0.000000000,0.000000000,0.000000000,0.282710493,-0.950570047,2.078573465,1.477156520,0.359419882,-0.119412802,1710832809398109.000000000,,,,,,,,,,,,,,,,,,,,,,,,,,
1710832809.422456,,,,,,,,,,,,,,,,,,,,,,,,,,,0.000000000,0.000000000,0.000000000,0.000000000,0.000000000,0.000000000,1.000000000,0.000000000,0.000000000,0.000000000,0.000000000,0.000000000,0.000000000,-0.721086282,2.259318641,0.000000000,0.000000000,0.000000000,0.000000000,0.304050560,-0.952655896,2.000000000,1.467090044,0.468237851,0.000000000,0.000000000
1710832809.423951,0.000000000,0.000000000,0.000000000,0.000000000,0.000000000,0.000000000,-0.992141008,0.124021366,0.007983113,0.014533740,0.000000000,0.000000000,0.000000000,-0.692233443,2.394836396,0.026278198,0.000000000,0.000000000,0.000000000,0.307630181,-0.943524957,2.078739882,1.466566443,0.397494882,-0.118626527,1710832809414109.000000000,,,,,,,,,,,,,,,,,,,,,,,,,,
1710832809.442503,,,,,,,,,,,,,,,,,,,,,,,,,,,0.000000000,0.000000000,0.000000000,0.000000000,0.000000000,0.000000000,1.000000000,0.000000000,0.000000000,0.000000000,0.000000000,0.000000000,0.000000000,-0.790319996,2.236041245,0.000000000,0.000000000,0.000000000,0.000000000,0.333243390,-0.942840836,2.000000000,1.451974852,0.513194809,0.000000000,0.000000000
1710832809.443903,0.000000000,0.000000000,0.000000000,0.000000000,0.000000000,0.000000000,-0.992120504,0.123785056,0.012596549,0.014683929,0.000000000,0.000000000,0.000000000,-0.751480460,2.328872681,0.044113025,0.000000000,0.000000000,0.000000000,0.344537139,-0.931915283,2.078841925,1.448715806,0.453942239,-0.117413193,1710832809438198.000000000,,,,,,,,,,,,,,,,,,,,,,,,,,
1710832809.462556,,,,,,,,,,,,,,,,,,,,,,,,,,,0.000000000,0.000000000,0.000000000,0.000000000,0.000000000,0.000000000,1.000000000,0.000000000,0.000000000,0.000000000,0.000000000,0.000000000,0.000000000,-0.858804046,2.210642838,0.000000000,0.000000000,0.000000000,0.000000000,0.362120120,-0.932131438,2.000000000,1.435482380,0.557664972,0.000000000,0.000000000
1710832809.463934,0.000000000,0.000000000,0.000000000,0.000000000,0.000000000,0.000000000,-0.992108285,0.123521306,0.015665196,0.014772614,0.000000000,0.000000000,0.000000000,-0.836908817,2.321574837,0.047877431,0.000000000,0.000000000,0.000000000,0.368812680,-0.923489094,2.078858376,1.435507536,0.491115868,-0.116643041,1710832809454198.000000000,,,,,,,,,,,,,,,,,,,,,,,,,,
1710832809.482597,,,,,,,,,,,,,,,,,,,,,,,,,,,0.000000000,0.000000000,0.000000000,0.000000000,0.000000000,0.000000000,1.000000000,0.000000000,0.000000000,0.000000000,0.000000000,0.000000000,0.000000000,-0.926473472,2.183147510,0.000000000,0.000000000,0.000000000,0.000000000,0.390653359,-0.920537861,2.000000000,1.417628271,0.601606158,0.000000000,0.000000000
1710832809.483988,0.000000000,0.000000000,0.000000000,0.000000000,0.000000000,0.000000000,-0.992089033,0.122980624,0.020283623,0.014957140,0.000000000,0.000000000,0.000000000,-0.916957855,2.308778465,0.011388212,0.000000000,0.000000000,0.000000000,0.404693633,-0.909823239,2.078687429,1.413898468,0.546942890,-0.115962252,1710832809478198.000000000,,,,,,,,,,,,,,,,,,,,,,,,,,
1710832809.502481,,,,,,,,,,,,,,,,,,,,,,,,,,,0.000000000,0.000000000,0.000000000,0.000000000,0.000000000,0.000000000,1.000000000,0.000000000,0.000000000,0.000000000,0.000000000,0.000000000,0.000000000,-0.993272300,2.153577554,0.000000000,0.000000000,0.000000000,0.000000000,0.418819504,-0.908069503,2.000000000,1.398427000,0.644982021,0.000000000,0.000000000
1710832809.503966,0.000000000,0.000000000,0.000000000,0.000000000,0.000000000,0.000000000,-0.992082179,0.122478999,0.023346938,0.015064627,0.000000000,0.000000000,0.000000000,-0.985935330,2.269737422,0.028637238,0.000000000,0.000000000,0.000000000,0.428244799,-0.900032341,2.078537703,1.398475409,0.583287477,-0.115608349,1710832809494198.000000000,,,,,,,,,,,,,,,,,,,,,,,,,,
1710832809.522556,,,,,,,,,,,,,,,,,,,,,,,,,,,0.000000000,0.000000000,0.000000000,0.000000000,0.000000000,0.000000000,1.000000000,0.000000000,0.000000000,0.000000000,0.000000000,0.000000000,0.000000000,-1.059120626,2.121968342,0.000000000,0.000000000,0.000000000,0.000000000,0.446584864,-0.894741280,2.000000000,1.377901538,0.687740674,0.000000000,0.000000000
1710832809.523928,0.000000000,0.000000000,0.000000000,0.000000000,0.000000000,0.000000000,-0.992075086,0.121560805,0.027887691,0.015239964,0.000000000,0.000000000,0.000000000,-1.057267189,2.196766436,0.021269545,0.000000000,0.000000000,0.000000000,0.462987989,-0.884344637,2.078247786,1.373732567,0.636433423,-0.115646757,1710832809518198.000000000,,,,,,,,,,,,,,,,,,,,,,,,,,
1710832809.542464,,,,,,,,,,,,,,,,,,,,,,,,,,,0.000000000,0.000000000,0.000000000,0.000000000,0.000000000,0.000000000,1.000000000,0.000000000,0.000000000,0.000000000,0.000000000,0.000000000,0.000000000,-1.123964315,2.088346323,0.000000000,0.000000000,0.000000000,0.000000000,0.473926613,-0.880564345,2.000000000,1.356069057,0.729846967,0.000000000,0.000000000
1710832809.543909,0.000000000,0.000000000,0.000000000,0.000000000,0.000000000,0.000000000,-0.992071927,0.120840155,0.030903287,0.015359662,0.000000000,0.000000000,0.000000000,-1.115962863,2.193473279,-0.019920990,0.000000000,0.000000000,0.000000000,0.485747725,-0.873227954,2.077924967,1.356175184,0.671661377,-0.115888543,1710832809534287.000000000,,,,,,,,,,,,,,,,,,,,,,,,,,
1710832809.562456,,,,,,,,,,,,,,,,,,,,,,,,,,,0.000000000,0.000000000,0.000000000,0.000000000,0.000000000,0.000000000,1.000000000,0.000000000,0.000000000,0.000000000,0.000000000,0.000000000,0.000000000,-1.187741860,2.052743388,0.000000000,0.000000000,0.000000000,0.000000000,0.500818816,-0.865552144,2.000000000,1.332950268,0.771260958,0.000000000,0.000000000
1710832809.563901,0.000000000,0.000000000,0.000000000,0.000000000,0.000000000,0.000000000,-0.992073059,0.119558051,0.035428513,0.015552848,0.000000000,0.000000000,0.000000000,-1.188814640,2.122811973,-0.018449500,0.000000000,0.000000000,0.000000000,0.519244730,-0.855572522,2.077370644,1.328353047,0.723313749,-0.116084360,1710832809558287.000000000,,,,,,,,,,,,,,,,,,,,,,,,,,
1710832809.582483,,,,,,,,,,,,,,,,,,,,,,,,,,,0.000000000,0.000000000,0.000000000,0.000000000,0.000000000,0.000000000,1.000000000,0.000000000,0.000000000,0.000000000,0.000000000,0.000000000,0.000000000,-1.250392765,2.015193310,0.000000000,0.000000000,0.000000000,0.000000000,0.527235964,-0.849718917,2.000000000,1.308567101,0.811943364,0.000000000,0.000000000
1710832809.583971,0.000000000,0.000000000,0.000000000,0.000000000,0.000000000,0.000000000,-0.992078006,0.118557639,0.038447477,0.015724814,0.000000000,0.000000000,0.000000000,-1.256436110,2.098225057,-0.031193718,0.000000000,0.000000000,0.000000000,0.541135311,-0.843163252,2.077025652,1.308426261,0.757074296,-0.116503969,1710832809574287.000000000,,,,,,,,,,,,,,,,,,,,,,,,,,
1710832809.602701,,,,,,,,,,,,,,,,,,,,,,,,,,,0.000000000,0.000000000,0.000000000,0.000000000,0.000000000,0.000000000,1.000000000,0.000000000,0.000000000,0.000000000,0.000000000,0.000000000,0.000000000,-1.311865138,1.975726703,0.000000000,0.000000000,0.000000000,0.000000000,0.553156176,-0.833077575,2.000000000,1.282939433,0.851860490,0.000000000,0.000000000
1710832809.604058,0.000000000,0.000000000,0.000000000,0.000000000,0.000000000,0.000000000,-0.992089868,0.116880849,0.042912584,0.015973404,0.000000000,0.000000000,0.000000000,-1.301079988,2.054363489,-0.006133690,0.000000000,0.000000000,0.000000000,0.573282599,-0.823604405,2.076327801,1.277562857,0.806867123,-0.116316438,1710832809598287.000000000,,,,,,,,,,,,,,,,,,,,,,,,,,
1710832809.622476,,,,,,,,,,,,,,,,,,,,,,,,,,,0.000000000,0.000000000,0.000000000,0.000000000,0.000000000,0.000000000,1.000000000,0.000000000,0.000000000,0.000000000,0.000000000,0.000000000,0.000000000,-1.372085446,1.934390776,0.000000000,0.000000000,0.000000000,0.000000000,0.578548447,-0.815648021,2.000000000,1.256097922,0.890964586,0.000000000,0.000000000
1710832809.623945,0.000000000,0.000000000,0.000000000,0.000000000,0.000000000,0.000000000,-0.992097735,0.115673162,0.045842811,0.016134132,0.000000000,0.000000000,0.000000000,-1.410260797,2.033181489,0.025636517,0.000000000,0.000000000,0.000000000,0.594226837,-0.809945583,2.075815439,1.255428314,0.839348495,-0.116093799,1710832809614287.000000000,,,,,,,,,,,,,,,,,,,,,,,,,,
1710832809.642498,,,,,,,,,,,,,,,,,,,,,,,,,,,0.000000000,0.000000000,0.000000000,0.000000000,0.000000000,0.000000000,1.000000000,0.000000000,0.000000000,0.000000000,0.000000000,0.000000000,0.000000000,-1.431004252,1.891219970,0.000000000,0.000000000,0.000000000,0.000000000,0.603391931,-0.797444780,2.000000000,1.228064931,0.929223551,0.000000000,0.000000000
1710832809.643946,0.000000000,0.000000000,0.000000000,0.000000000,0.000000000,0.000000000,-0.992107868,0.113730714,0.050189465,0.016380969,0.000000000,0.000000000,0.000000000,-1.464426517,1.971103251,0.006361865,0.000000000,0.000000000,0.000000000,0.624872267,-0.788550198,2.074986219,1.220857143,0.886703312,-0.115725778,1710832809638376.000000000,,,,,,,,,,,,,,,,,,,,,,,,,,
1710832809.662470,,,,,,,,,,,,,,,,,,,,,,,,,,,0.000000000,0.000000000,0.000000000,0.000000000,0.000000000,0.000000000,1.000000000,0.000000000,0.000000000,0.000000000,0.000000000,0.000000000,0.000000000,-1.488565670,1.846255235,0.000000000,0.000000000,0.000000000,0.000000000,0.627663065,-0.778485117,2.000000000,1.198867050,0.966601096,0.000000000,0.000000000
1710832809.663926,0.000000000,0.000000000,0.000000000,0.000000000,0.000000000,0.000000000,-0.992116153,0.112328768,0.053042926,0.016560089,0.000000000,0.000000000,0.000000000,-1.517578959,1.904159784,0.009184703,0.000000000,0.000000000,0.000000000,0.644789219,-0.773694217,2.074327707,1.196800828,0.917443514,-0.115740590,1710832809654376.000000000,,,,,,,,,,,,,,,,,,,,,,,,,,
1710832809.682740,,,,,,,,,,,,,,,,,,,,,,,,,,,0.000000000,0.000000000,0.000000000,0.000000000,0.000000000,0.000000000,1.000000000,0.000000000,0.000000000,0.000000000,0.000000000,0.000000000,0.000000000,-1.544721963,1.799533329,0.000000000,0.000000000,0.000000000,0.000000000,0.651341719,-0.758784532,2.000000000,1.168528150,1.003066222,0.000000000,0.000000000
